30 VERBOSE:
48 VERBOSE:$SkyTraq,Venus8
104 VERBOSE:$Kernel,v2.2.4,00003CB2,1626,00008005,F,24.552000MHz
131 VERBOSE:$ver,1.7.27,rev,17.01.12
1075 VERBOSE:RECVCS:7E CALCCS:7E
1079 VERBOSE:$GNGGA,115945.000,0000.0000,N,00000.0000,E,0,00,0.0,0.0,M,0.0,M,,0000*7E
1128 VERBOSE:RECVCS:52 CALCCS:32
1133 VERBOSE:$GNGLL,0000.0000000,E,115945.000,V,N*52
1169 VERBOSE:RECVCS:2E CALCCS:02
1173 VERBOSE:$GNGSA,A,1,,,,,,,,,,,,0.0,0.0,0.0*2E
1244 VERBOSE:RECVCS:6F CALCCS:5F
1248 VERBOSE:$GNRMC,115945.00,V,0000.0000,N,00000.0000,E,000.0,000.0,280606,,,N*6F
1286 VERBOSE:RECVCS:1C CALCCS:31
1290 VERBOSE:$GNVTG,000.0,T,,,000.0,K,N*1C
1326 VERBOSE:RECVCS:4D CALCCS:4D
1331 VERBOSE:$GNZDA,115945.000,28,06,2006,00,00*4D
1344 VERBOSE:RECVCS:1C CALCCS:1C
1353 VERBOSE:$PSTI,001,3*1C
2075 VERBOSE:RECVCS:7D CALCCS:7D
2080 VERBOSE:$GNGGA,115946.000,0000.0000,N,00000.0000,E,0,00,0.0,0.0,M,0.0,M,,0000*7D
2129 VERBOSE:RECVCS:51 CALCCS:31
2133 VERBOSE:$GNGLL,0000.0000000,E,115946.000,V,N*51
2169 VERBOSE:RECVCS:2E CALCCS:02
2173 VERBOSE:$GNGSA,A,1,,,,,,,,,,,,0.0,0.0,0.0*2E
2244 VERBOSE:RECVCS:6C CALCCS:5C
2249 VERBOSE:$GNRMC,115946.00,V,0000.0000,N,00000.0000,E,000.0,000.0,280606,,,N*6C
2286 VERBOSE:RECVCS:1C CALCCS:31
2290 VERBOSE:$GNVTG,000.0,T,,,000.0,K,N*1C
2327 VERBOSE:RECVCS:4E CALCCS:4E
2331 VERBOSE:$GNZDA,115946.000,28,06,2006,00,00*4E
3075 VERBOSE:RECVCS:7C CALCCS:7C
3080 VERBOSE:$GNGGA,115947.000,0000.0000,N,00000.0000,E,0,00,0.0,0.0,M,0.0,M,,0000*7C
3129 VERBOSE:RECVCS:50 CALCCS:30
3133 VERBOSE:$GNGLL,0000.0000000,E,115947.000,V,N*50
3169 VERBOSE:RECVCS:2E CALCCS:02
3173 VERBOSE:$GNGSA,A,1,,,,,,,,,,,,0.0,0.0,0.0*2E
3244 VERBOSE:RECVCS:6D CALCCS:5D
3249 VERBOSE:$GNRMC,115947.00,V,0000.0000,N,00000.0000,E,000.0,000.0,280606,,,N*6D
3286 VERBOSE:RECVCS:1C CALCCS:31
3290 VERBOSE:$GNVTG,000.0,T,,,000.0,K,N*1C
3327 VERBOSE:RECVCS:4F CALCCS:4F
3331 VERBOSE:$GNZDA,115947.000,28,06,2006,00,00*4F
4075 VERBOSE:RECVCS:73 CALCCS:73
4080 VERBOSE:$GNGGA,115948.000,0000.0000,N,00000.0000,E,0,00,0.0,0.0,M,0.0,M,,0000*73
4128 VERBOSE:RECVCS:5F CALCCS:3F
4133 VERBOSE:$GNGLL,0000.0000000,E,115948.000,V,N*5F
4169 VERBOSE:RECVCS:2E CALCCS:02
4173 VERBOSE:$GNGSA,A,1,,,,,,,,,,,,0.0,0.0,0.0*2E
4244 VERBOSE:RECVCS:62 CALCCS:52
4248 VERBOSE:$GNRMC,115948.00,V,0000.0000,N,00000.0000,E,000.0,000.0,280606,,,N*62
4286 VERBOSE:RECVCS:1C CALCCS:31
4290 VERBOSE:$GNVTG,000.0,T,,,000.0,K,N*1C
4327 VERBOSE:RECVCS:40 CALCCS:40
4331 VERBOSE:$GNZDA,115948.000,28,06,2006,00,00*40
5075 VERBOSE:RECVCS:72 CALCCS:72
5080 VERBOSE:$GNGGA,115949.000,0000.0000,N,00000.0000,E,0,00,0.0,0.0,M,0.0,M,,0000*72
5129 VERBOSE:RECVCS:5E CALCCS:3E
5133 VERBOSE:$GNGLL,0000.0000000,E,115949.000,V,N*5E
5169 VERBOSE:RECVCS:2E CALCCS:02
5173 VERBOSE:$GNGSA,A,1,,,,,,,,,,,,0.0,0.0,0.0*2E
5244 VERBOSE:RECVCS:63 CALCCS:53
5249 VERBOSE:$GNRMC,115949.00,V,0000.0000,N,00000.0000,E,000.0,000.0,280606,,,N*63
5286 VERBOSE:RECVCS:1C CALCCS:31
5290 VERBOSE:$GNVTG,000.0,T,,,000.0,K,N*1C
5327 VERBOSE:RECVCS:41 CALCCS:41
5331 VERBOSE:$GNZDA,115949.000,28,06,2006,00,00*41
6076 VERBOSE:RECVCS:7A CALCCS:7A
6080 VERBOSE:$GNGGA,115950.000,0000.0000,N,00000.0000,E,0,00,0.0,0.0,M,0.0,M,,0000*7A
6129 VERBOSE:RECVCS:56 CALCCS:36
6133 VERBOSE:$GNGLL,0000.0000000,E,115950.000,V,N*56
6169 VERBOSE:RECVCS:2E CALCCS:02
6174 VERBOSE:$GNGSA,A,1,,,,,,,,,,,,0.0,0.0,0.0*2E
6244 VERBOSE:RECVCS:6B CALCCS:5B
6249 VERBOSE:$GNRMC,115950.00,V,0000.0000,N,00000.0000,E,000.0,000.0,280606,,,N*6B
6286 VERBOSE:RECVCS:1C CALCCS:31
6290 VERBOSE:$GNVTG,000.0,T,,,000.0,K,N*1C
6327 VERBOSE:RECVCS:49 CALCCS:49
6331 VERBOSE:$GNZDA,115950.000,28,06,2006,00,00*49
7075 VERBOSE:RECVCS:7B CALCCS:7B
7080 VERBOSE:$GNGGA,115951.000,0000.0000,N,00000.0000,E,0,00,0.0,0.0,M,0.0,M,,0000*7B
7129 VERBOSE:RECVCS:57 CALCCS:37
7133 VERBOSE:$GNGLL,0000.0000000,E,115951.000,V,N*57
7169 VERBOSE:RECVCS:2E CALCCS:02
7173 VERBOSE:$GNGSA,A,1,,,,,,,,,,,,0.0,0.0,0.0*2E
7244 VERBOSE:RECVCS:6A CALCCS:5A
7249 VERBOSE:$GNRMC,115951.00,V,0000.0000,N,00000.0000,E,000.0,000.0,280606,,,N*6A
7286 VERBOSE:RECVCS:1C CALCCS:31
7290 VERBOSE:$GNVTG,000.0,T,,,000.0,K,N*1C
7327 VERBOSE:RECVCS:48 CALCCS:48
7331 VERBOSE:$GNZDA,115951.000,28,06,2006,00,00*48
8075 VERBOSE:RECVCS:78 CALCCS:78
8080 VERBOSE:$GNGGA,115952.000,0000.0000,N,00000.0000,E,0,00,0.0,0.0,M,0.0,M,,0000*78
8129 VERBOSE:RECVCS:54 CALCCS:34
8133 VERBOSE:$GNGLL,0000.0000000,E,115952.000,V,N*54
8169 VERBOSE:RECVCS:2E CALCCS:02
8174 VERBOSE:$GNGSA,A,1,,,,,,,,,,,,0.0,0.0,0.0*2E
8244 VERBOSE:RECVCS:69 CALCCS:59
8249 VERBOSE:$GNRMC,115952.00,V,0000.0000,N,00000.0000,E,000.0,000.0,280606,,,N*69
8286 VERBOSE:RECVCS:1C CALCCS:31
8290 VERBOSE:$GNVTG,000.0,T,,,000.0,K,N*1C
8327 VERBOSE:RECVCS:4B CALCCS:4B
8331 VERBOSE:$GNZDA,115952.000,28,06,2006,00,00*4B
9075 VERBOSE:RECVCS:79 CALCCS:79
9079 VERBOSE:$GNGGA,115953.000,0000.0000,N,00000.0000,E,0,00,0.0,0.0,M,0.0,M,,0000*79
9128 VERBOSE:RECVCS:55 CALCCS:35
9133 VERBOSE:$GNGLL,0000.0000000,E,115953.000,V,N*55
9169 VERBOSE:RECVCS:2E CALCCS:02
9173 VERBOSE:$GNGSA,A,1,,,,,,,,,,,,0.0,0.0,0.0*2E
9244 VERBOSE:RECVCS:68 CALCCS:58
9248 VERBOSE:$GNRMC,115953.00,V,0000.0000,N,00000.0000,E,000.0,000.0,280606,,,N*68
9286 VERBOSE:RECVCS:1C CALCCS:31
9290 VERBOSE:$GNVTG,000.0,T,,,000.0,K,N*1C
9327 VERBOSE:RECVCS:4A CALCCS:4A
9331 VERBOSE:$GNZDA,115953.000,28,06,2006,00,00*4A
10075 VERBOSE:RECVCS:7E CALCCS:7E
10080 VERBOSE:$GNGGA,115954.000,0000.0000,N,00000.0000,E,0,00,0.0,0.0,M,0.0,M,,0000*7E
10129 VERBOSE:RECVCS:52 CALCCS:32
10133 VERBOSE:$GNGLL,0000.0000000,E,115954.000,V,N*52
10169 VERBOSE:RECVCS:2E CALCCS:2E
10174 VERBOSE:$GNGSA,A,1,,,,,,,,,,,0.0,0.0,0.0*2E
10244 VERBOSE:RECVCS:6F CALCCS:5F
10249 VERBOSE:$GNRMC,115954.00,V,0000.0000,N,00000.0000,E,000.0,000.0,280606,,,N*6F
10286 VERBOSE:RECVCS:1C CALCCS:31
10291 VERBOSE:$GNVTG,000.0,T,,,000.0,K,N*1C
10327 VERBOSE:RECVCS:4D CALCCS:4D
10331 VERBOSE:$GNZDA,115954.000,28,06,2006,00,00*4D
11075 VERBOSE:RECVCS:7F CALCCS:7F
11080 VERBOSE:$GNGGA,115955.000,0000.0000,N,00000.0000,E,0,00,0.0,0.0,M,0.0,M,,0000*7F
11129 VERBOSE:RECVCS:53 CALCCS:33
11133 VERBOSE:$GNGLL,0000.0000000,E,115955.000,V,N*53
11169 VERBOSE:RECVCS:2E CALCCS:2E
11174 VERBOSE:$GNGSA,A,1,,,,,,,,,,,0.0,0.0,0.0*2E
11244 VERBOSE:RECVCS:6E CALCCS:5E
11249 VERBOSE:$GNRMC,115955.00,V,0000.0000,N,00000.0000,E,000.0,000.0,280606,,,N*6E
11286 VERBOSE:RECVCS:1C CALCCS:31
11291 VERBOSE:$GNVTG,000.0,T,,,000.0,K,N*1C
11327 VERBOSE:RECVCS:4C CALCCS:4C
11331 VERBOSE:$GNZDA,115955.000,28,06,2006,00,00*4C
12076 VERBOSE:RECVCS:7C CALCCS:7C
12080 VERBOSE:$GNGGA,115956.000,0000.0000,N,00000.0000,E,0,00,0.0,0.0,M,0.0,M,,0000*7C
12129 VERBOSE:RECVCS:50 CALCCS:30
12133 VERBOSE:$GNGLL,0000.0000000,E,115956.000,V,N*50
12169 VERBOSE:RECVCS:2E CALCCS:2E
12174 VERBOSE:$GNGSA,A,1,,,,,,,,,,,0.0,0.0,0.0*2E
12244 VERBOSE:RECVCS:6D CALCCS:5D
12249 VERBOSE:$GNRMC,115956.00,V,0000.0000,N,00000.0000,E,000.0,000.0,280606,,,N*6D
12286 VERBOSE:RECVCS:1C CALCCS:31
12291 VERBOSE:$GNVTG,000.0,T,,,000.0,K,N*1C
12327 VERBOSE:RECVCS:4F CALCCS:4F
12331 VERBOSE:$GNZDA,115956.000,28,06,2006,00,00*4F
13075 VERBOSE:RECVCS:7D CALCCS:7D
13080 VERBOSE:$GNGGA,115957.000,0000.0000,N,00000.0000,E,0,00,0.0,0.0,M,0.0,M,,0000*7D
13129 VERBOSE:RECVCS:51 CALCCS:31
13133 VERBOSE:$GNGLL,0000.0000000,E,115957.000,V,N*51
13169 VERBOSE:RECVCS:2E CALCCS:2E
13174 VERBOSE:$GNGSA,A,1,,,,,,,,,,,0.0,0.0,0.0*2E
13244 VERBOSE:RECVCS:6C CALCCS:5C
13249 VERBOSE:$GNRMC,115957.00,V,0000.0000,N,00000.0000,E,000.0,000.0,280606,,,N*6C
13286 VERBOSE:RECVCS:1C CALCCS:31
13290 VERBOSE:$GNVTG,000.0,T,,,000.0,K,N*1C
13327 VERBOSE:RECVCS:4E CALCCS:4E
13331 VERBOSE:$GNZDA,115957.000,28,06,2006,00,00*4E
14075 VERBOSE:RECVCS:72 CALCCS:72
14080 VERBOSE:$GNGGA,115958.000,0000.0000,N,00000.0000,E,0,00,0.0,0.0,M,0.0,M,,0000*72
14129 VERBOSE:RECVCS:5E CALCCS:3E
14133 VERBOSE:$GNGLL,0000.0000000,E,115958.000,V,N*5E
14169 VERBOSE:RECVCS:2E CALCCS:2E
14174 VERBOSE:$GNGSA,A,1,,,,,,,,,,,0.0,0.0,0.0*2E
14244 VERBOSE:RECVCS:63 CALCCS:53
14249 VERBOSE:$GNRMC,115958.00,V,0000.0000,N,00000.0000,E,000.0,000.0,280606,,,N*63
14286 VERBOSE:RECVCS:1C CALCCS:31
14290 VERBOSE:$GNVTG,000.0,T,,,000.0,K,N*1C
14327 VERBOSE:RECVCS:41 CALCCS:41
14331 VERBOSE:$GNZDA,115958.000,28,06,2006,00,00*41
15075 VERBOSE:RECVCS:73 CALCCS:73
15080 VERBOSE:$GNGGA,115959.000,0000.0000,N,00000.0000,E,0,00,0.0,0.0,M,0.0,M,,0000*73
15129 VERBOSE:RECVCS:5F CALCCS:3F
15133 VERBOSE:$GNGLL,0000.0000000,E,115959.000,V,N*5F
15169 VERBOSE:RECVCS:2E CALCCS:2E
15174 VERBOSE:$GNGSA,A,1,,,,,,,,,,,0.0,0.0,0.0*2E
15244 VERBOSE:RECVCS:62 CALCCS:52
15249 VERBOSE:$GNRMC,115959.00,V,0000.0000,N,00000.0000,E,000.0,000.0,280606,,,N*62
15286 VERBOSE:RECVCS:1C CALCCS:31
15290 VERBOSE:$GNVTG,000.0,T,,,000.0,K,N*1C
15327 VERBOSE:RECVCS:40 CALCCS:40
15331 VERBOSE:$GNZDA,115959.000,28,06,2006,00,00*40
16075 VERBOSE:RECVCS:70 CALCCS:70
16080 VERBOSE:$GNGGA,120000.000,0000.0000,N,00000.0000,E,0,00,0.0,0.0,M,0.0,M,,0000*70
16128 VERBOSE:RECVCS:5C CALCCS:3C
16133 VERBOSE:$GNGLL,0000.0000000,E,120000.000,V,N*5C
16169 VERBOSE:RECVCS:2E CALCCS:2E
16174 VERBOSE:$GNGSA,A,1,,,,,,,,,,,0.0,0.0,0.0*2E
16244 VERBOSE:RECVCS:61 CALCCS:51
16249 VERBOSE:$GNRMC,120000.00,V,0000.0000,N,00000.0000,E,000.0,000.0,280606,,,N*61
16286 VERBOSE:RECVCS:1C CALCCS:31
16290 VERBOSE:$GNVTG,000.0,T,,,000.0,K,N*1C
16327 VERBOSE:RECVCS:43 CALCCS:43
16331 VERBOSE:$GNZDA,120000.000,28,06,2006,00,00*43
17075 VERBOSE:RECVCS:71 CALCCS:71
17080 VERBOSE:$GNGGA,120001.000,0000.0000,N,00000.0000,E,0,00,0.0,0.0,M,0.0,M,,0000*71
17128 VERBOSE:RECVCS:5D CALCCS:3D
17133 VERBOSE:$GNGLL,0000.0000000,E,120001.000,V,N*5D
17169 VERBOSE:RECVCS:2E CALCCS:2E
17174 VERBOSE:$GNGSA,A,1,,,,,,,,,,,0.0,0.0,0.0*2E
17244 VERBOSE:RECVCS:60 CALCCS:50
17249 VERBOSE:$GNRMC,120001.00,V,0000.0000,N,00000.0000,E,000.0,000.0,280606,,,N*60
17286 VERBOSE:RECVCS:1C CALCCS:31
17290 VERBOSE:$GNVTG,000.0,T,,,000.0,K,N*1C
17327 VERBOSE:RECVCS:42 CALCCS:42
17331 VERBOSE:$GNZDA,120001.000,28,06,2006,00,00*42
18075 VERBOSE:RECVCS:72 CALCCS:72
18080 VERBOSE:$GNGGA,120002.000,0000.0000,N,00000.0000,E,0,00,0.0,0.0,M,0.0,M,,0000*72
18129 VERBOSE:RECVCS:5E CALCCS:3E
18133 VERBOSE:$GNGLL,0000.0000000,E,120002.000,V,N*5E
18169 VERBOSE:RECVCS:2E CALCCS:2E
18174 VERBOSE:$GNGSA,A,1,,,,,,,,,,,0.0,0.0,0.0*2E
18244 VERBOSE:RECVCS:63 CALCCS:53
18249 VERBOSE:$GNRMC,120002.00,V,0000.0000,N,00000.0000,E,000.0,000.0,280606,,,N*63
18286 VERBOSE:RECVCS:1C CALCCS:31
18291 VERBOSE:$GNVTG,000.0,T,,,000.0,K,N*1C
18327 VERBOSE:RECVCS:41 CALCCS:41
18331 VERBOSE:$GNZDA,120002.000,28,06,2006,00,00*41
19075 VERBOSE:RECVCS:73 CALCCS:73
19080 VERBOSE:$GNGGA,120003.000,0000.0000,N,00000.0000,E,0,00,0.0,0.0,M,0.0,M,,0000*73
19129 VERBOSE:RECVCS:5F CALCCS:3F
19133 VERBOSE:$GNGLL,0000.0000000,E,120003.000,V,N*5F
19169 VERBOSE:RECVCS:2E CALCCS:2E
19174 VERBOSE:$GNGSA,A,1,,,,,,,,,,,0.0,0.0,0.0*2E
19244 VERBOSE:RECVCS:62 CALCCS:52
19249 VERBOSE:$GNRMC,120003.00,V,0000.0000,N,00000.0000,E,000.0,000.0,280606,,,N*62
19286 VERBOSE:RECVCS:1C CALCCS:31
19290 VERBOSE:$GNVTG,000.0,T,,,000.0,K,N*1C
19327 VERBOSE:RECVCS:40 CALCCS:40
19331 VERBOSE:$GNZDA,120003.000,28,06,2006,00,00*40
20075 VERBOSE:RECVCS:74 CALCCS:74
20080 VERBOSE:$GNGGA,120004.000,0000.0000,N,00000.0000,E,0,00,0.0,0.0,M,0.0,M,,0000*74
20128 VERBOSE:RECVCS:58 CALCCS:38
20133 VERBOSE:$GNGLL,0000.0000000,E,120004.000,V,N*58
20169 VERBOSE:RECVCS:2E CALCCS:2E
20173 VERBOSE:$GNGSA,A,1,,,,,,,,,,,0.0,0.0,0.0*2E
20244 VERBOSE:RECVCS:65 CALCCS:55
20249 VERBOSE:$GNRMC,120004.00,V,0000.0000,N,00000.0000,E,000.0,000.0,280606,,,N*65
20286 VERBOSE:RECVCS:1C CALCCS:31
20290 VERBOSE:$GNVTG,000.0,T,,,000.0,K,N*1C
20326 VERBOSE:RECVCS:47 CALCCS:47
20331 VERBOSE:$GNZDA,120004.000,28,06,2006,00,00*47
21076 VERBOSE:RECVCS:75 CALCCS:75
21081 VERBOSE:$GNGGA,120005.000,0000.0000,N,00000.0000,E,0,00,0.0,0.0,M,0.0,M,,0000*75
21129 VERBOSE:RECVCS:59 CALCCS:39
21134 VERBOSE:$GNGLL,0000.0000000,E,120005.000,V,N*59
21170 VERBOSE:RECVCS:2E CALCCS:2E
21174 VERBOSE:$GNGSA,A,1,,,,,,,,,,,0.0,0.0,0.0*2E
21245 VERBOSE:RECVCS:64 CALCCS:54
21250 VERBOSE:$GNRMC,120005.00,V,0000.0000,N,00000.0000,E,000.0,000.0,280606,,,N*64
21287 VERBOSE:RECVCS:1C CALCCS:31
21291 VERBOSE:$GNVTG,000.0,T,,,000.0,K,N*1C
21327 VERBOSE:RECVCS:46 CALCCS:46
21332 VERBOSE:$GNZDA,120005.000,28,06,2006,00,00*46
22076 VERBOSE:RECVCS:76 CALCCS:76
22081 VERBOSE:$GNGGA,120006.000,0000.0000,N,00000.0000,E,0,00,0.0,0.0,M,0.0,M,,0000*76
22129 VERBOSE:RECVCS:5A CALCCS:3A
22134 VERBOSE:$GNGLL,0000.0000000,E,120006.000,V,N*5A
22170 VERBOSE:RECVCS:2E CALCCS:2E
22174 VERBOSE:$GNGSA,A,1,,,,,,,,,,,0.0,0.0,0.0*2E
22245 VERBOSE:RECVCS:67 CALCCS:57
22250 VERBOSE:$GNRMC,120006.00,V,0000.0000,N,00000.0000,E,000.0,000.0,280606,,,N*67
22287 VERBOSE:RECVCS:1C CALCCS:31
22291 VERBOSE:$GNVTG,000.0,T,,,000.0,K,N*1C
22327 VERBOSE:RECVCS:45 CALCCS:45
22332 VERBOSE:$GNZDA,120006.000,28,06,2006,00,00*45
23076 VERBOSE:RECVCS:77 CALCCS:77
23080 VERBOSE:$GNGGA,120007.000,0000.0000,N,00000.0000,E,0,00,0.0,0.0,M,0.0,M,,0000*77
23129 VERBOSE:RECVCS:5B CALCCS:3B
23134 VERBOSE:$GNGLL,0000.0000000,E,120007.000,V,N*5B
23170 VERBOSE:RECVCS:2E CALCCS:2E
23174 VERBOSE:$GNGSA,A,1,,,,,,,,,,,0.0,0.0,0.0*2E
23245 VERBOSE:RECVCS:66 CALCCS:56
23249 VERBOSE:$GNRMC,120007.00,V,0000.0000,N,00000.0000,E,000.0,000.0,280606,,,N*66
23287 VERBOSE:RECVCS:1C CALCCS:31
23291 VERBOSE:$GNVTG,000.0,T,,,000.0,K,N*1C
23327 VERBOSE:RECVCS:44 CALCCS:44
23332 VERBOSE:$GNZDA,120007.000,28,06,2006,00,00*44
24076 VERBOSE:RECVCS:78 CALCCS:78
24081 VERBOSE:$GNGGA,120008.000,0000.0000,N,00000.0000,E,0,00,0.0,0.0,M,0.0,M,,0000*78
24130 VERBOSE:RECVCS:54 CALCCS:34
24134 VERBOSE:$GNGLL,0000.0000000,E,120008.000,V,N*54
24170 VERBOSE:RECVCS:2E CALCCS:2E
24175 VERBOSE:$GNGSA,A,1,,,,,,,,,,,0.0,0.0,0.0*2E
24245 VERBOSE:RECVCS:69 CALCCS:59
24250 VERBOSE:$GNRMC,120008.00,V,0000.0000,N,00000.0000,E,000.0,000.0,280606,,,N*69
24287 VERBOSE:RECVCS:1C CALCCS:31
24292 VERBOSE:$GNVTG,000.0,T,,,000.0,K,N*1C
24328 VERBOSE:RECVCS:4B CALCCS:4B
24332 VERBOSE:$GNZDA,120008.000,28,06,2006,00,00*4B
25076 VERBOSE:RECVCS:79 CALCCS:79
25080 VERBOSE:$GNGGA,120009.000,0000.0000,N,00000.0000,E,0,00,0.0,0.0,M,0.0,M,,0000*79
25129 VERBOSE:RECVCS:55 CALCCS:35
25133 VERBOSE:$GNGLL,0000.0000000,E,120009.000,V,N*55
25170 VERBOSE:RECVCS:2E CALCCS:2E
25174 VERBOSE:$GNGSA,A,1,,,,,,,,,,,0.0,0.0,0.0*2E
25245 VERBOSE:RECVCS:68 CALCCS:58
25249 VERBOSE:$GNRMC,120009.00,V,0000.0000,N,00000.0000,E,000.0,000.0,280606,,,N*68
25286 VERBOSE:RECVCS:1C CALCCS:31
25291 VERBOSE:$GNVTG,000.0,T,,,000.0,K,N*1C
25327 VERBOSE:RECVCS:4A CALCCS:4A
25331 VERBOSE:$GNZDA,120009.000,28,06,2006,00,00*4A
26077 VERBOSE:RECVCS:71 CALCCS:71
26081 VERBOSE:$GNGGA,120010.000,0000.0000,N,00000.0000,E,0,00,0.0,0.0,M,0.0,M,,0000*71
26130 VERBOSE:RECVCS:5D CALCCS:3D
26134 VERBOSE:$GNGLL,0000.0000000,E,120010.000,V,N*5D
26171 VERBOSE:RECVCS:2E CALCCS:2E
26175 VERBOSE:$GNGSA,A,1,,,,,,,,,,,0.0,0.0,0.0*2E
26246 VERBOSE:RECVCS:60 CALCCS:50
26250 VERBOSE:$GNRMC,120010.00,V,0000.0000,N,00000.0000,E,000.0,000.0,280606,,,N*60
26287 VERBOSE:RECVCS:1C CALCCS:31
26292 VERBOSE:$GNVTG,000.0,T,,,000.0,K,N*1C
26328 VERBOSE:RECVCS:42 CALCCS:42
26333 VERBOSE:$GNZDA,120010.000,28,06,2006,00,00*42
27077 VERBOSE:RECVCS:70 CALCCS:70
27081 VERBOSE:$GNGGA,120011.000,0000.0000,N,00000.0000,E,0,00,0.0,0.0,M,0.0,M,,0000*70
27130 VERBOSE:RECVCS:5C CALCCS:3C
27134 VERBOSE:$GNGLL,0000.0000000,E,120011.000,V,N*5C
27171 VERBOSE:RECVCS:2E CALCCS:2E
27175 VERBOSE:$GNGSA,A,1,,,,,,,,,,,0.0,0.0,0.0*2E
27246 VERBOSE:RECVCS:61 CALCCS:51
27250 VERBOSE:$GNRMC,120011.00,V,0000.0000,N,00000.0000,E,000.0,000.0,280606,,,N*61
27287 VERBOSE:RECVCS:1C CALCCS:31
27292 VERBOSE:$GNVTG,000.0,T,,,000.0,K,N*1C
27328 VERBOSE:RECVCS:43 CALCCS:43
27332 VERBOSE:$GNZDA,120011.000,28,06,2006,00,00*43
28075 VERBOSE:RECVCS:73 CALCCS:73
28080 VERBOSE:$GNGGA,120012.000,0000.0000,N,00000.0000,E,0,00,0.0,0.0,M,0.0,M,,0000*73
28129 VERBOSE:RECVCS:5F CALCCS:3F
28133 VERBOSE:$GNGLL,0000.0000000,E,120012.000,V,N*5F
28169 VERBOSE:RECVCS:2E CALCCS:2E
28174 VERBOSE:$GNGSA,A,1,,,,,,,,,,,0.0,0.0,0.0*2E
28244 VERBOSE:RECVCS:62 CALCCS:52
28249 VERBOSE:$GNRMC,120012.00,V,0000.0000,N,00000.0000,E,000.0,000.0,280606,,,N*62
28286 VERBOSE:RECVCS:1C CALCCS:31
28290 VERBOSE:$GNVTG,000.0,T,,,000.0,K,N*1C
28327 VERBOSE:RECVCS:40 CALCCS:40
28331 VERBOSE:$GNZDA,120012.000,28,06,2006,00,00*40
29075 VERBOSE:RECVCS:72 CALCCS:72
29080 VERBOSE:$GNGGA,120013.000,0000.0000,N,00000.0000,E,0,00,0.0,0.0,M,0.0,M,,0000*72
29128 VERBOSE:RECVCS:5E CALCCS:3E
29133 VERBOSE:$GNGLL,0000.0000000,E,120013.000,V,N*5E
29169 VERBOSE:RECVCS:2E CALCCS:2E
29173 VERBOSE:$GNGSA,A,1,,,,,,,,,,,0.0,0.0,0.0*2E
29244 VERBOSE:RECVCS:63 CALCCS:53
29249 VERBOSE:$GNRMC,120013.00,V,0000.0000,N,00000.0000,E,000.0,000.0,280606,,,N*63
29286 VERBOSE:RECVCS:1C CALCCS:31
29290 VERBOSE:$GNVTG,000.0,T,,,000.0,K,N*1C
29326 VERBOSE:RECVCS:41 CALCCS:41
29331 VERBOSE:$GNZDA,120013.000,28,06,2006,00,00*41
30075 VERBOSE:RECVCS:75 CALCCS:75
30080 VERBOSE:$GNGGA,120014.000,0000.0000,N,00000.0000,E,0,00,0.0,0.0,M,0.0,M,,0000*75
30129 VERBOSE:RECVCS:59 CALCCS:39
30133 VERBOSE:$GNGLL,0000.0000000,E,120014.000,V,N*59
30169 VERBOSE:RECVCS:2E CALCCS:2E
30174 VERBOSE:$GNGSA,A,1,,,,,,,,,,,0.0,0.0,0.0*2E
30244 VERBOSE:RECVCS:64 CALCCS:54
30249 VERBOSE:$GNRMC,120014.00,V,0000.0000,N,00000.0000,E,000.0,000.0,280606,,,N*64
30286 VERBOSE:RECVCS:1C CALCCS:31
30290 VERBOSE:$GNVTG,000.0,T,,,000.0,K,N*1C
30327 VERBOSE:RECVCS:46 CALCCS:46
30331 VERBOSE:$GNZDA,120014.000,28,06,2006,00,00*46
31075 VERBOSE:RECVCS:74 CALCCS:74
31080 VERBOSE:$GNGGA,120015.000,0000.0000,N,00000.0000,E,0,00,0.0,0.0,M,0.0,M,,0000*74
31128 VERBOSE:RECVCS:58 CALCCS:38
31133 VERBOSE:$GNGLL,0000.0000000,E,120015.000,V,N*58
31169 VERBOSE:RECVCS:2E CALCCS:2E
31174 VERBOSE:$GNGSA,A,1,,,,,,,,,,,0.0,0.0,0.0*2E
31244 VERBOSE:RECVCS:65 CALCCS:55
31249 VERBOSE:$GNRMC,120015.00,V,0000.0000,N,00000.0000,E,000.0,000.0,280606,,,N*65
31286 VERBOSE:RECVCS:1C CALCCS:31
31290 VERBOSE:$GNVTG,000.0,T,,,000.0,K,N*1C
31327 VERBOSE:RECVCS:47 CALCCS:47
31331 VERBOSE:$GNZDA,120015.000,28,06,2006,00,00*47
32075 VERBOSE:RECVCS:77 CALCCS:77
32080 VERBOSE:$GNGGA,120016.000,0000.0000,N,00000.0000,E,0,00,0.0,0.0,M,0.0,M,,0000*77
32128 VERBOSE:RECVCS:5B CALCCS:3B
32133 VERBOSE:$GNGLL,0000.0000000,E,120016.000,V,N*5B
32169 VERBOSE:RECVCS:2E CALCCS:2E
32173 VERBOSE:$GNGSA,A,1,,,,,,,,,,,0.0,0.0,0.0*2E
32244 VERBOSE:RECVCS:66 CALCCS:56
32249 VERBOSE:$GNRMC,120016.00,V,0000.0000,N,00000.0000,E,000.0,000.0,280606,,,N*66
32286 VERBOSE:RECVCS:1C CALCCS:31
32290 VERBOSE:$GNVTG,000.0,T,,,000.0,K,N*1C
32326 VERBOSE:RECVCS:44 CALCCS:44
32331 VERBOSE:$GNZDA,120016.000,28,06,2006,00,00*44
33075 VERBOSE:RECVCS:76 CALCCS:76
33080 VERBOSE:$GNGGA,120017.000,0000.0000,N,00000.0000,E,0,00,0.0,0.0,M,0.0,M,,0000*76
33128 VERBOSE:RECVCS:5A CALCCS:3A
33133 VERBOSE:$GNGLL,0000.0000000,E,120017.000,V,N*5A
33169 VERBOSE:RECVCS:2E CALCCS:2E
33174 VERBOSE:$GNGSA,A,1,,,,,,,,,,,0.0,0.0,0.0*2E
33244 VERBOSE:RECVCS:67 CALCCS:57
33249 VERBOSE:$GNRMC,120017.00,V,0000.0000,N,00000.0000,E,000.0,000.0,280606,,,N*67
33286 VERBOSE:RECVCS:1C CALCCS:31
33290 VERBOSE:$GNVTG,000.0,T,,,000.0,K,N*1C
33327 VERBOSE:RECVCS:45 CALCCS:45
33331 VERBOSE:$GNZDA,120017.000,28,06,2006,00,00*45
34075 VERBOSE:RECVCS:79 CALCCS:79
34080 VERBOSE:$GNGGA,120018.000,0000.0000,N,00000.0000,E,0,00,0.0,0.0,M,0.0,M,,0000*79
34128 VERBOSE:RECVCS:55 CALCCS:35
34133 VERBOSE:$GNGLL,0000.0000000,E,120018.000,V,N*55
34169 VERBOSE:RECVCS:2E CALCCS:2E
34174 VERBOSE:$GNGSA,A,1,,,,,,,,,,,0.0,0.0,0.0*2E
34244 VERBOSE:RECVCS:68 CALCCS:58
34249 VERBOSE:$GNRMC,120018.00,V,0000.0000,N,00000.0000,E,000.0,000.0,280606,,,N*68
34286 VERBOSE:RECVCS:1C CALCCS:31
34290 VERBOSE:$GNVTG,000.0,T,,,000.0,K,N*1C
34327 VERBOSE:RECVCS:4A CALCCS:4A
34331 VERBOSE:$GNZDA,120018.000,28,06,2006,00,00*4A
35075 VERBOSE:RECVCS:78 CALCCS:78
35080 VERBOSE:$GNGGA,120019.000,0000.0000,N,00000.0000,E,0,00,0.0,0.0,M,0.0,M,,0000*78
35128 VERBOSE:RECVCS:54 CALCCS:34
35133 VERBOSE:$GNGLL,0000.0000000,E,120019.000,V,N*54
35169 VERBOSE:RECVCS:2E CALCCS:2E
35173 VERBOSE:$GNGSA,A,1,,,,,,,,,,,0.0,0.0,0.0*2E
35244 VERBOSE:RECVCS:69 CALCCS:59
35249 VERBOSE:$GNRMC,120019.00,V,0000.0000,N,00000.0000,E,000.0,000.0,280606,,,N*69
35286 VERBOSE:RECVCS:1C CALCCS:31
35290 VERBOSE:$GNVTG,000.0,T,,,000.0,K,N*1C
35326 VERBOSE:RECVCS:4B CALCCS:4B
35331 VERBOSE:$GNZDA,120019.000,28,06,2006,00,00*4B
36076 VERBOSE:RECVCS:72 CALCCS:72
36080 VERBOSE:$GNGGA,120020.000,0000.0000,N,00000.0000,E,0,00,0.0,0.0,M,0.0,M,,0000*72
36129 VERBOSE:RECVCS:5E CALCCS:3E
36134 VERBOSE:$GNGLL,0000.0000000,E,120020.000,V,N*5E
36170 VERBOSE:RECVCS:2E CALCCS:2E
36174 VERBOSE:$GNGSA,A,1,,,,,,,,,,,0.0,0.0,0.0*2E
36245 VERBOSE:RECVCS:63 CALCCS:53
36249 VERBOSE:$GNRMC,120020.00,V,0000.0000,N,00000.0000,E,000.0,000.0,280606,,,N*63
36287 VERBOSE:RECVCS:1C CALCCS:31
36291 VERBOSE:$GNVTG,000.0,T,,,000.0,K,N*1C
36327 VERBOSE:RECVCS:41 CALCCS:41
36332 VERBOSE:$GNZDA,120020.000,28,06,2006,00,00*41
37075 VERBOSE:RECVCS:73 CALCCS:73
37080 VERBOSE:$GNGGA,120021.000,0000.0000,N,00000.0000,E,0,00,0.0,0.0,M,0.0,M,,0000*73
37129 VERBOSE:RECVCS:5F CALCCS:3F
37133 VERBOSE:$GNGLL,0000.0000000,E,120021.000,V,N*5F
37169 VERBOSE:RECVCS:2E CALCCS:2E
37174 VERBOSE:$GNGSA,A,1,,,,,,,,,,,0.0,0.0,0.0*2E
37244 VERBOSE:RECVCS:62 CALCCS:52
37249 VERBOSE:$GNRMC,120021.00,V,0000.0000,N,00000.0000,E,000.0,000.0,280606,,,N*62
37286 VERBOSE:RECVCS:1C CALCCS:31
37291 VERBOSE:$GNVTG,000.0,T,,,000.0,K,N*1C
37327 VERBOSE:RECVCS:40 CALCCS:40
37331 VERBOSE:$GNZDA,120021.000,28,06,2006,00,00*40
38075 VERBOSE:RECVCS:70 CALCCS:70
38080 VERBOSE:$GNGGA,120022.000,0000.0000,N,00000.0000,E,0,00,0.0,0.0,M,0.0,M,,0000*70
38128 VERBOSE:RECVCS:5C CALCCS:3C
38133 VERBOSE:$GNGLL,0000.0000000,E,120022.000,V,N*5C
38169 VERBOSE:RECVCS:2E CALCCS:2E
38174 VERBOSE:$GNGSA,A,1,,,,,,,,,,,0.0,0.0,0.0*2E
38244 VERBOSE:RECVCS:61 CALCCS:51
38249 VERBOSE:$GNRMC,120022.00,V,0000.0000,N,00000.0000,E,000.0,000.0,280606,,,N*61
38286 VERBOSE:RECVCS:1C CALCCS:31
38290 VERBOSE:$GNVTG,000.0,T,,,000.0,K,N*1C
38327 VERBOSE:RECVCS:43 CALCCS:43
38331 VERBOSE:$GNZDA,120022.000,28,06,2006,00,00*43
39075 VERBOSE:RECVCS:71 CALCCS:71
39080 VERBOSE:$GNGGA,120023.000,0000.0000,N,00000.0000,E,0,00,0.0,0.0,M,0.0,M,,0000*71
39129 VERBOSE:RECVCS:5D CALCCS:3D
39133 VERBOSE:$GNGLL,0000.0000000,E,120023.000,V,N*5D
39169 VERBOSE:RECVCS:2E CALCCS:2E
39174 VERBOSE:$GNGSA,A,1,,,,,,,,,,,0.0,0.0,0.0*2E
39244 VERBOSE:RECVCS:60 CALCCS:50
39249 VERBOSE:$GNRMC,120023.00,V,0000.0000,N,00000.0000,E,000.0,000.0,280606,,,N*60
39286 VERBOSE:RECVCS:1C CALCCS:31
39290 VERBOSE:$GNVTG,000.0,T,,,000.0,K,N*1C
39327 VERBOSE:RECVCS:42 CALCCS:42
39331 VERBOSE:$GNZDA,120023.000,28,06,2006,00,00*42
40075 VERBOSE:RECVCS:76 CALCCS:76
40080 VERBOSE:$GNGGA,120024.000,0000.0000,N,00000.0000,E,0,00,0.0,0.0,M,0.0,M,,0000*76
40128 VERBOSE:RECVCS:5A CALCCS:3A
40133 VERBOSE:$GNGLL,0000.0000000,E,120024.000,V,N*5A
40169 VERBOSE:RECVCS:2E CALCCS:2E
40174 VERBOSE:$GNGSA,A,1,,,,,,,,,,,0.0,0.0,0.0*2E
40244 VERBOSE:RECVCS:67 CALCCS:57
40249 VERBOSE:$GNRMC,120024.00,V,0000.0000,N,00000.0000,E,000.0,000.0,280606,,,N*67
40286 VERBOSE:RECVCS:1C CALCCS:31
40290 VERBOSE:$GNVTG,000.0,T,,,000.0,K,N*1C
40327 VERBOSE:RECVCS:45 CALCCS:45
40331 VERBOSE:$GNZDA,120024.000,28,06,2006,00,00*45
41075 VERBOSE:RECVCS:77 CALCCS:77
41080 VERBOSE:$GNGGA,120025.000,0000.0000,N,00000.0000,E,0,00,0.0,0.0,M,0.0,M,,0000*77
41129 VERBOSE:RECVCS:5B CALCCS:3B
41133 VERBOSE:$GNGLL,0000.0000000,E,120025.000,V,N*5B
41169 VERBOSE:RECVCS:2E CALCCS:2E
41174 VERBOSE:$GNGSA,A,1,,,,,,,,,,,0.0,0.0,0.0*2E
41244 VERBOSE:RECVCS:66 CALCCS:56
41249 VERBOSE:$GNRMC,120025.00,V,0000.0000,N,00000.0000,E,000.0,000.0,280606,,,N*66
41286 VERBOSE:RECVCS:1C CALCCS:31
41290 VERBOSE:$GNVTG,000.0,T,,,000.0,K,N*1C
41327 VERBOSE:RECVCS:44 CALCCS:44
41331 VERBOSE:$GNZDA,120025.000,28,06,2006,00,00*44
42075 VERBOSE:RECVCS:74 CALCCS:74
42080 VERBOSE:$GNGGA,120026.000,0000.0000,N,00000.0000,E,0,00,0.0,0.0,M,0.0,M,,0000*74
42128 VERBOSE:RECVCS:58 CALCCS:38
42133 VERBOSE:$GNGLL,0000.0000000,E,120026.000,V,N*58
42169 VERBOSE:RECVCS:2E CALCCS:2E
42174 VERBOSE:$GNGSA,A,1,,,,,,,,,,,0.0,0.0,0.0*2E
42244 VERBOSE:RECVCS:65 CALCCS:55
42249 VERBOSE:$GNRMC,120026.00,V,0000.0000,N,00000.0000,E,000.0,000.0,280606,,,N*65
42286 VERBOSE:RECVCS:1C CALCCS:31
42290 VERBOSE:$GNVTG,000.0,T,,,000.0,K,N*1C
42327 VERBOSE:RECVCS:47 CALCCS:47
42331 VERBOSE:$GNZDA,120026.000,28,06,2006,00,00*47
43075 VERBOSE:RECVCS:75 CALCCS:75
43079 VERBOSE:$GNGGA,120027.000,0000.0000,N,00000.0000,E,0,00,0.0,0.0,M,0.0,M,,0000*75
43128 VERBOSE:RECVCS:59 CALCCS:39
43133 VERBOSE:$GNGLL,0000.0000000,E,120027.000,V,N*59
43169 VERBOSE:RECVCS:2E CALCCS:2E
43173 VERBOSE:$GNGSA,A,1,,,,,,,,,,,0.0,0.0,0.0*2E
43244 VERBOSE:RECVCS:64 CALCCS:54
43248 VERBOSE:$GNRMC,120027.00,V,0000.0000,N,00000.0000,E,000.0,000.0,280606,,,N*64
43286 VERBOSE:RECVCS:1C CALCCS:31
43290 VERBOSE:$GNVTG,000.0,T,,,000.0,K,N*1C
43326 VERBOSE:RECVCS:46 CALCCS:46
43331 VERBOSE:$GNZDA,120027.000,28,06,2006,00,00*46
44075 VERBOSE:RECVCS:7A CALCCS:7A
44080 VERBOSE:$GNGGA,120028.000,0000.0000,N,00000.0000,E,0,00,0.0,0.0,M,0.0,M,,0000*7A
44128 VERBOSE:RECVCS:56 CALCCS:36
44133 VERBOSE:$GNGLL,0000.0000000,E,120028.000,V,N*56
44169 VERBOSE:RECVCS:2E CALCCS:2E
44174 VERBOSE:$GNGSA,A,1,,,,,,,,,,,0.0,0.0,0.0*2E
44244 VERBOSE:RECVCS:6B CALCCS:5B
44249 VERBOSE:$GNRMC,120028.00,V,0000.0000,N,00000.0000,E,000.0,000.0,280606,,,N*6B
44286 VERBOSE:RECVCS:1C CALCCS:31
44290 VERBOSE:$GNVTG,000.0,T,,,000.0,K,N*1C
44327 VERBOSE:RECVCS:49 CALCCS:49
44331 VERBOSE:$GNZDA,120028.000,28,06,2006,00,00*49
45075 VERBOSE:RECVCS:7B CALCCS:7B
45080 VERBOSE:$GNGGA,120029.000,0000.0000,N,00000.0000,E,0,00,0.0,0.0,M,0.0,M,,0000*7B
45128 VERBOSE:RECVCS:57 CALCCS:37
45133 VERBOSE:$GNGLL,0000.0000000,E,120029.000,V,N*57
45169 VERBOSE:RECVCS:2E CALCCS:2E
45174 VERBOSE:$GNGSA,A,1,,,,,,,,,,,0.0,0.0,0.0*2E
45244 VERBOSE:RECVCS:6A CALCCS:5A
45249 VERBOSE:$GNRMC,120029.00,V,0000.0000,N,00000.0000,E,000.0,000.0,280606,,,N*6A
45286 VERBOSE:RECVCS:1C CALCCS:31
45290 VERBOSE:$GNVTG,000.0,T,,,000.0,K,N*1C
45327 VERBOSE:RECVCS:48 CALCCS:48
45331 VERBOSE:$GNZDA,120029.000,28,06,2006,00,00*48
46075 VERBOSE:RECVCS:73 CALCCS:73
46080 VERBOSE:$GNGGA,120030.000,0000.0000,N,00000.0000,E,0,00,0.0,0.0,M,0.0,M,,0000*73
46128 VERBOSE:RECVCS:5F CALCCS:3F
46133 VERBOSE:$GNGLL,0000.0000000,E,120030.000,V,N*5F
46169 VERBOSE:RECVCS:2E CALCCS:2E
46174 VERBOSE:$GNGSA,A,1,,,,,,,,,,,0.0,0.0,0.0*2E
46244 VERBOSE:RECVCS:62 CALCCS:52
46249 VERBOSE:$GNRMC,120030.00,V,0000.0000,N,00000.0000,E,000.0,000.0,280606,,,N*62
46286 VERBOSE:RECVCS:1C CALCCS:31
46290 VERBOSE:$GNVTG,000.0,T,,,000.0,K,N*1C
46327 VERBOSE:RECVCS:40 CALCCS:40
46331 VERBOSE:$GNZDA,120030.000,28,06,2006,00,00*40
47075 VERBOSE:RECVCS:72 CALCCS:72
47080 VERBOSE:$GNGGA,120031.000,0000.0000,N,00000.0000,E,0,00,0.0,0.0,M,0.0,M,,0000*72
47128 VERBOSE:RECVCS:5E CALCCS:3E
47133 VERBOSE:$GNGLL,0000.0000000,E,120031.000,V,N*5E
47169 VERBOSE:RECVCS:2E CALCCS:2E
47173 VERBOSE:$GNGSA,A,1,,,,,,,,,,,0.0,0.0,0.0*2E
47244 VERBOSE:RECVCS:63 CALCCS:53
47248 VERBOSE:$GNRMC,120031.00,V,0000.0000,N,00000.0000,E,000.0,000.0,280606,,,N*63
47286 VERBOSE:RECVCS:1C CALCCS:31
47290 VERBOSE:$GNVTG,000.0,T,,,000.0,K,N*1C
47326 VERBOSE:RECVCS:41 CALCCS:41
47331 VERBOSE:$GNZDA,120031.000,28,06,2006,00,00*41
48075 VERBOSE:RECVCS:71 CALCCS:71
48080 VERBOSE:$GNGGA,120032.000,0000.0000,N,00000.0000,E,0,00,0.0,0.0,M,0.0,M,,0000*71
48128 VERBOSE:RECVCS:5D CALCCS:3D
48133 VERBOSE:$GNGLL,0000.0000000,E,120032.000,V,N*5D
48169 VERBOSE:RECVCS:2E CALCCS:2E
48174 VERBOSE:$GNGSA,A,1,,,,,,,,,,,0.0,0.0,0.0*2E
48244 VERBOSE:RECVCS:60 CALCCS:50
48249 VERBOSE:$GNRMC,120032.00,V,0000.0000,N,00000.0000,E,000.0,000.0,280606,,,N*60
48286 VERBOSE:RECVCS:1C CALCCS:31
48290 VERBOSE:$GNVTG,000.0,T,,,000.0,K,N*1C
48327 VERBOSE:RECVCS:42 CALCCS:42
48331 VERBOSE:$GNZDA,120032.000,28,06,2006,00,00*42
49075 VERBOSE:RECVCS:70 CALCCS:70
49079 VERBOSE:$GNGGA,120033.000,0000.0000,N,00000.0000,E,0,00,0.0,0.0,M,0.0,M,,0000*70
49128 VERBOSE:RECVCS:5C CALCCS:3C
49133 VERBOSE:$GNGLL,0000.0000000,E,120033.000,V,N*5C
49169 VERBOSE:RECVCS:2E CALCCS:2E
49173 VERBOSE:$GNGSA,A,1,,,,,,,,,,,0.0,0.0,0.0*2E
49244 VERBOSE:RECVCS:61 CALCCS:51
49248 VERBOSE:$GNRMC,120033.00,V,0000.0000,N,00000.0000,E,000.0,000.0,280606,,,N*61
49286 VERBOSE:RECVCS:1C CALCCS:31
49290 VERBOSE:$GNVTG,000.0,T,,,000.0,K,N*1C
49326 VERBOSE:RECVCS:43 CALCCS:43
49331 VERBOSE:$GNZDA,120033.000,28,06,2006,00,00*43
50075 VERBOSE:RECVCS:77 CALCCS:77
50080 VERBOSE:$GNGGA,120034.000,0000.0000,N,00000.0000,E,0,00,0.0,0.0,M,0.0,M,,0000*77
50128 VERBOSE:RECVCS:5B CALCCS:3B
50133 VERBOSE:$GNGLL,0000.0000000,E,120034.000,V,N*5B
50169 VERBOSE:RECVCS:2E CALCCS:2E
50174 VERBOSE:$GNGSA,A,1,,,,,,,,,,,0.0,0.0,0.0*2E
50244 VERBOSE:RECVCS:66 CALCCS:56
50249 VERBOSE:$GNRMC,120034.00,V,0000.0000,N,00000.0000,E,000.0,000.0,280606,,,N*66
50286 VERBOSE:RECVCS:1C CALCCS:31
50290 VERBOSE:$GNVTG,000.0,T,,,000.0,K,N*1C
50327 VERBOSE:RECVCS:44 CALCCS:44
50331 VERBOSE:$GNZDA,120034.000,28,06,2006,00,00*44
51075 VERBOSE:RECVCS:76 CALCCS:76
51080 VERBOSE:$GNGGA,120035.000,0000.0000,N,00000.0000,E,0,00,0.0,0.0,M,0.0,M,,0000*76
51128 VERBOSE:RECVCS:5A CALCCS:3A
51133 VERBOSE:$GNGLL,0000.0000000,E,120035.000,V,N*5A
51169 VERBOSE:RECVCS:2E CALCCS:2E
51173 VERBOSE:$GNGSA,A,1,,,,,,,,,,,0.0,0.0,0.0*2E
51244 VERBOSE:RECVCS:67 CALCCS:57
51249 VERBOSE:$GNRMC,120035.00,V,0000.0000,N,00000.0000,E,000.0,000.0,280606,,,N*67
51286 VERBOSE:RECVCS:1C CALCCS:31
51290 VERBOSE:$GNVTG,000.0,T,,,000.0,K,N*1C
51326 VERBOSE:RECVCS:45 CALCCS:45
51331 VERBOSE:$GNZDA,120035.000,28,06,2006,00,00*45
52075 VERBOSE:RECVCS:75 CALCCS:75
52080 VERBOSE:$GNGGA,120036.000,0000.0000,N,00000.0000,E,0,00,0.0,0.0,M,0.0,M,,0000*75
52128 VERBOSE:RECVCS:59 CALCCS:39
52133 VERBOSE:$GNGLL,0000.0000000,E,120036.000,V,N*59
52169 VERBOSE:RECVCS:2E CALCCS:2E
52173 VERBOSE:$GNGSA,A,1,,,,,,,,,,,0.0,0.0,0.0*2E
52244 VERBOSE:RECVCS:64 CALCCS:54
52249 VERBOSE:$GNRMC,120036.00,V,0000.0000,N,00000.0000,E,000.0,000.0,280606,,,N*64
52286 VERBOSE:RECVCS:1C CALCCS:31
52290 VERBOSE:$GNVTG,000.0,T,,,000.0,K,N*1C
52326 VERBOSE:RECVCS:46 CALCCS:46
52331 VERBOSE:$GNZDA,120036.000,28,06,2006,00,00*46
53075 VERBOSE:RECVCS:74 CALCCS:74
53080 VERBOSE:$GNGGA,120037.000,0000.0000,N,00000.0000,E,0,00,0.0,0.0,M,0.0,M,,0000*74
53128 VERBOSE:RECVCS:58 CALCCS:38
53133 VERBOSE:$GNGLL,0000.0000000,E,120037.000,V,N*58
53169 VERBOSE:RECVCS:2E CALCCS:2E
53173 VERBOSE:$GNGSA,A,1,,,,,,,,,,,0.0,0.0,0.0*2E
53244 VERBOSE:RECVCS:65 CALCCS:55
53248 VERBOSE:$GNRMC,120037.00,V,0000.0000,N,00000.0000,E,000.0,000.0,280606,,,N*65
53286 VERBOSE:RECVCS:1C CALCCS:31
53290 VERBOSE:$GNVTG,000.0,T,,,000.0,K,N*1C
53326 VERBOSE:RECVCS:47 CALCCS:47
53331 VERBOSE:$GNZDA,120037.000,28,06,2006,00,00*47
54075 VERBOSE:RECVCS:7B CALCCS:7B
54079 VERBOSE:$GNGGA,120038.000,0000.0000,N,00000.0000,E,0,00,0.0,0.0,M,0.0,M,,0000*7B
54128 VERBOSE:RECVCS:57 CALCCS:37
54133 VERBOSE:$GNGLL,0000.0000000,E,120038.000,V,N*57
54169 VERBOSE:RECVCS:2E CALCCS:2E
54173 VERBOSE:$GNGSA,A,1,,,,,,,,,,,0.0,0.0,0.0*2E
54244 VERBOSE:RECVCS:6A CALCCS:5A
54248 VERBOSE:$GNRMC,120038.00,V,0000.0000,N,00000.0000,E,000.0,000.0,280606,,,N*6A
54286 VERBOSE:RECVCS:1C CALCCS:31
54290 VERBOSE:$GNVTG,000.0,T,,,000.0,K,N*1C
54326 VERBOSE:RECVCS:48 CALCCS:48
54331 VERBOSE:$GNZDA,120038.000,28,06,2006,00,00*48
55075 VERBOSE:RECVCS:7A CALCCS:7A
55079 VERBOSE:$GNGGA,120039.000,0000.0000,N,00000.0000,E,0,00,0.0,0.0,M,0.0,M,,0000*7A
55128 VERBOSE:RECVCS:56 CALCCS:36
55133 VERBOSE:$GNGLL,0000.0000000,E,120039.000,V,N*56
55169 VERBOSE:RECVCS:2E CALCCS:2E
55173 VERBOSE:$GNGSA,A,1,,,,,,,,,,,0.0,0.0,0.0*2E
55244 VERBOSE:RECVCS:6B CALCCS:5B
55248 VERBOSE:$GNRMC,120039.00,V,0000.0000,N,00000.0000,E,000.0,000.0,280606,,,N*6B
55286 VERBOSE:RECVCS:1C CALCCS:31
55290 VERBOSE:$GNVTG,000.0,T,,,000.0,K,N*1C
55326 VERBOSE:RECVCS:49 CALCCS:49
55331 VERBOSE:$GNZDA,120039.000,28,06,2006,00,00*49
56075 VERBOSE:RECVCS:74 CALCCS:74
56080 VERBOSE:$GNGGA,120040.000,0000.0000,N,00000.0000,E,0,00,0.0,0.0,M,0.0,M,,0000*74
56128 VERBOSE:RECVCS:58 CALCCS:38
56133 VERBOSE:$GNGLL,0000.0000000,E,120040.000,V,N*58
56169 VERBOSE:RECVCS:2E CALCCS:2E
56174 VERBOSE:$GNGSA,A,1,,,,,,,,,,,0.0,0.0,0.0*2E
56244 VERBOSE:RECVCS:65 CALCCS:55
56249 VERBOSE:$GNRMC,120040.00,V,0000.0000,N,00000.0000,E,000.0,000.0,280606,,,N*65
56286 VERBOSE:RECVCS:1C CALCCS:31
56290 VERBOSE:$GNVTG,000.0,T,,,000.0,K,N*1C
56327 VERBOSE:RECVCS:47 CALCCS:47
56331 VERBOSE:$GNZDA,120040.000,28,06,2006,00,00*47
57075 VERBOSE:RECVCS:75 CALCCS:75
57079 VERBOSE:$GNGGA,120041.000,0000.0000,N,00000.0000,E,0,00,0.0,0.0,M,0.0,M,,0000*75
57128 VERBOSE:RECVCS:59 CALCCS:39
57133 VERBOSE:$GNGLL,0000.0000000,E,120041.000,V,N*59
57169 VERBOSE:RECVCS:2E CALCCS:2E
57173 VERBOSE:$GNGSA,A,1,,,,,,,,,,,0.0,0.0,0.0*2E
57244 VERBOSE:RECVCS:64 CALCCS:54
57248 VERBOSE:$GNRMC,120041.00,V,0000.0000,N,00000.0000,E,000.0,000.0,280606,,,N*64
57286 VERBOSE:RECVCS:1C CALCCS:31
57290 VERBOSE:$GNVTG,000.0,T,,,000.0,K,N*1C
57326 VERBOSE:RECVCS:46 CALCCS:46
57331 VERBOSE:$GNZDA,120041.000,28,06,2006,00,00*46
58075 VERBOSE:RECVCS:76 CALCCS:76
58079 VERBOSE:$GNGGA,120042.000,0000.0000,N,00000.0000,E,0,00,0.0,0.0,M,0.0,M,,0000*76
58128 VERBOSE:RECVCS:5A CALCCS:3A
58133 VERBOSE:$GNGLL,0000.0000000,E,120042.000,V,N*5A
58169 VERBOSE:RECVCS:2E CALCCS:2E
58173 VERBOSE:$GNGSA,A,1,,,,,,,,,,,0.0,0.0,0.0*2E
58244 VERBOSE:RECVCS:67 CALCCS:57
58248 VERBOSE:$GNRMC,120042.00,V,0000.0000,N,00000.0000,E,000.0,000.0,280606,,,N*67
58286 VERBOSE:RECVCS:1C CALCCS:31
58290 VERBOSE:$GNVTG,000.0,T,,,000.0,K,N*1C
58326 VERBOSE:RECVCS:45 CALCCS:45
58331 VERBOSE:$GNZDA,120042.000,28,06,2006,00,00*45
59075 VERBOSE:RECVCS:77 CALCCS:77
59080 VERBOSE:$GNGGA,120043.000,0000.0000,N,00000.0000,E,0,00,0.0,0.0,M,0.0,M,,0000*77
59128 VERBOSE:RECVCS:5B CALCCS:3B
59133 VERBOSE:$GNGLL,0000.0000000,E,120043.000,V,N*5B
59169 VERBOSE:RECVCS:2E CALCCS:2E
59173 VERBOSE:$GNGSA,A,1,,,,,,,,,,,0.0,0.0,0.0*2E
59244 VERBOSE:RECVCS:66 CALCCS:56
59248 VERBOSE:$GNRMC,120043.00,V,0000.0000,N,00000.0000,E,000.0,000.0,280606,,,N*66
59286 VERBOSE:RECVCS:1C CALCCS:31
59290 VERBOSE:$GNVTG,000.0,T,,,000.0,K,N*1C
59326 VERBOSE:RECVCS:44 CALCCS:44
59331 VERBOSE:$GNZDA,120043.000,28,06,2006,00,00*44
60076 VERBOSE:RECVCS:70 CALCCS:70
60081 VERBOSE:$GNGGA,120044.000,0000.0000,N,00000.0000,E,0,00,0.0,0.0,M,0.0,M,,0000*70
60129 VERBOSE:RECVCS:5C CALCCS:3C
60134 VERBOSE:$GNGLL,0000.0000000,E,120044.000,V,N*5C
60170 VERBOSE:RECVCS:2E CALCCS:2E
60174 VERBOSE:$GNGSA,A,1,,,,,,,,,,,0.0,0.0,0.0*2E
60245 VERBOSE:RECVCS:61 CALCCS:51
60249 VERBOSE:$GNRMC,120044.00,V,0000.0000,N,00000.0000,E,000.0,000.0,280606,,,N*61
60287 VERBOSE:RECVCS:1C CALCCS:31
60291 VERBOSE:$GNVTG,000.0,T,,,000.0,K,N*1C
60327 VERBOSE:RECVCS:43 CALCCS:43
60332 VERBOSE:$GNZDA,120044.000,28,06,2006,00,00*43
61077 VERBOSE:RECVCS:71 CALCCS:71
61082 VERBOSE:$GNGGA,120045.000,0000.0000,N,00000.0000,E,0,00,0.0,0.0,M,0.0,M,,0000*71
61130 VERBOSE:RECVCS:5D CALCCS:3D
61135 VERBOSE:$GNGLL,0000.0000000,E,120045.000,V,N*5D
61171 VERBOSE:RECVCS:2E CALCCS:2E
61175 VERBOSE:$GNGSA,A,1,,,,,,,,,,,0.0,0.0,0.0*2E
61246 VERBOSE:RECVCS:60 CALCCS:50
61250 VERBOSE:$GNRMC,120045.00,V,0000.0000,N,00000.0000,E,000.0,000.0,280606,,,N*60
61288 VERBOSE:RECVCS:1C CALCCS:31
61292 VERBOSE:$GNVTG,000.0,T,,,000.0,K,N*1C
61328 VERBOSE:RECVCS:42 CALCCS:42
61333 VERBOSE:$GNZDA,120045.000,28,06,2006,00,00*42
62081 VERBOSE:RECVCS:72 CALCCS:72
62085 VERBOSE:$GNGGA,120046.000,0000.0000,N,00000.0000,E,0,00,0.0,0.0,M,0.0,M,,0000*72
62134 VERBOSE:RECVCS:5E CALCCS:3E
62138 VERBOSE:$GNGLL,0000.0000000,E,120046.000,V,N*5E
62175 VERBOSE:RECVCS:2E CALCCS:2E
62179 VERBOSE:$GNGSA,A,1,,,,,,,,,,,0.0,0.0,0.0*2E
62250 VERBOSE:RECVCS:63 CALCCS:53
62254 VERBOSE:$GNRMC,120046.00,V,0000.0000,N,00000.0000,E,000.0,000.0,280606,,,N*63
62291 VERBOSE:RECVCS:1C CALCCS:31
62296 VERBOSE:$GNVTG,000.0,T,,,000.0,K,N*1C
62332 VERBOSE:RECVCS:41 CALCCS:41
62336 VERBOSE:$GNZDA,120046.000,28,06,2006,00,00*41
63081 VERBOSE:RECVCS:73 CALCCS:73
63086 VERBOSE:$GNGGA,120047.000,0000.0000,N,00000.0000,E,0,00,0.0,0.0,M,0.0,M,,0000*73
63134 VERBOSE:RECVCS:5F CALCCS:3F
63139 VERBOSE:$GNGLL,0000.0000000,E,120047.000,V,N*5F
63175 VERBOSE:RECVCS:2E CALCCS:2E
63179 VERBOSE:$GNGSA,A,1,,,,,,,,,,,0.0,0.0,0.0*2E
63250 VERBOSE:RECVCS:62 CALCCS:52
63255 VERBOSE:$GNRMC,120047.00,V,0000.0000,N,00000.0000,E,000.0,000.0,280606,,,N*62
63292 VERBOSE:RECVCS:1C CALCCS:31
63296 VERBOSE:$GNVTG,000.0,T,,,000.0,K,N*1C
63332 VERBOSE:RECVCS:40 CALCCS:40
63337 VERBOSE:$GNZDA,120047.000,28,06,2006,00,00*40
64082 VERBOSE:RECVCS:7C CALCCS:7C
64087 VERBOSE:$GNGGA,120048.000,0000.0000,N,00000.0000,E,0,00,0.0,0.0,M,0.0,M,,0000*7C
64135 VERBOSE:RECVCS:50 CALCCS:30
64140 VERBOSE:$GNGLL,0000.0000000,E,120048.000,V,N*50
64176 VERBOSE:RECVCS:2E CALCCS:2E
64180 VERBOSE:$GNGSA,A,1,,,,,,,,,,,0.0,0.0,0.0*2E
64235 VERBOSE:RECVCS:48 CALCCS:64
64240 VERBOSE:$GPGSV,1,1,03,1500,000,35,16,00,000,27,20,00,000,33*48
64311 VERBOSE:RECVCS:6D CALCCS:0B
64315 VERBOSE:$GNRMC,120048.0000.0000,N,00000.0000,E,000.0,000.0,280606,,,N*6D
64352 VERBOSE:RECVCS:1C CALCCS:7F
64357 VERBOSE:$GNVTG,000.0,T,,N,000.0,K,N*1C
64393 VERBOSE:RECVCS:4F CALCCS:4F
64397 VERBOSE:$GNZDA,120048.000,28,06,2006,00,00*4F
65083 VERBOSE:RECVCS:7D CALCCS:7D
65087 VERBOSE:$GNGGA,120049.000,0000.0000,N,00000.0000,E,0,00,0.0,0.0,M,0.0,M,,0000*7D
65136 VERBOSE:RECVCS:51 CALCCS:31
65140 VERBOSE:$GNGLL,0000.0000000,E,120049.000,V,N*51
65176 VERBOSE:RECVCS:2E CALCCS:2E
65181 VERBOSE:$GNGSA,A,1,,,,,,,,,,,0.0,0.0,0.0*2E
65252 VERBOSE:RECVCS:6C CALCCS:5C
65256 VERBOSE:$GNRMC,120049.00,V,0000.0000,N,00000.0000,E,000.0,000.0,280606,,,N*6C
65293 VERBOSE:RECVCS:1C CALCCS:31
65298 VERBOSE:$GNVTG,000.0,T,,,000.0,K,N*1C
65334 VERBOSE:RECVCS:4E CALCCS:4E
65338 VERBOSE:$GNZDA,120049.000,28,06,2006,00,00*4E
66082 VERBOSE:RECVCS:75 CALCCS:75
66087 VERBOSE:$GNGGA,120050.000,0000.0000,N,00000.0000,E,0,00,0.0,0.0,M,0.0,M,,0000*75
66135 VERBOSE:RECVCS:59 CALCCS:39
66140 VERBOSE:$GNGLL,0000.0000000,E,120050.000,V,N*59
66176 VERBOSE:RECVCS:2E CALCCS:2E
66181 VERBOSE:$GNGSA,A,1,,,,,,,,,,,0.0,0.0,0.0*2E
66251 VERBOSE:RECVCS:64 CALCCS:54
66256 VERBOSE:$GNRMC,120050.00,V,0000.0000,N,00000.0000,E,000.0,000.0,280606,,,N*64
66293 VERBOSE:RECVCS:1C CALCCS:31
66297 VERBOSE:$GNVTG,000.0,T,,,000.0,K,N*1C
66334 VERBOSE:RECVCS:46 CALCCS:46
66338 VERBOSE:$GNZDA,120050.000,28,06,2006,00,00*46
67082 VERBOSE:RECVCS:74 CALCCS:74
67086 VERBOSE:$GNGGA,120051.000,0000.0000,N,00000.0000,E,0,00,0.0,0.0,M,0.0,M,,0000*74
67135 VERBOSE:RECVCS:58 CALCCS:38
67140 VERBOSE:$GNGLL,0000.0000000,E,120051.000,V,N*58
67176 VERBOSE:RECVCS:2E CALCCS:2E
67180 VERBOSE:$GNGSA,A,1,,,,,,,,,,,0.0,0.0,0.0*2E
67235 VERBOSE:RECVCS:4C CALCCS:60
67240 VERBOSE:$GPGSV,1,1,03,1500,000,35,16,00,000,27,20,00,000,37*4C
67310 VERBOSE:RECVCS:65 CALCCS:03
67315 VERBOSE:$GNRMC,120051.0000.0000,N,00000.0000,E,000.0,000.0,280606,,,N*65
67352 VERBOSE:RECVCS:1C CALCCS:7F
67357 VERBOSE:$GNVTG,000.0,T,,N,000.0,K,N*1C
67393 VERBOSE:RECVCS:47 CALCCS:47
67397 VERBOSE:$GNZDA,120051.000,28,06,2006,00,00*47
68082 VERBOSE:RECVCS:77 CALCCS:77
68087 VERBOSE:$GNGGA,120052.000,0000.0000,N,00000.0000,E,0,00,0.0,0.0,M,0.0,M,,0000*77
68135 VERBOSE:RECVCS:5B CALCCS:3B
68140 VERBOSE:$GNGLL,0000.0000000,E,120052.000,V,N*5B
68176 VERBOSE:RECVCS:2E CALCCS:2E
68180 VERBOSE:$GNGSA,A,1,,,,,,,,,,,0.0,0.0,0.0*2E
68251 VERBOSE:RECVCS:66 CALCCS:56
68255 VERBOSE:$GNRMC,120052.00,V,0000.0000,N,00000.0000,E,000.0,000.0,280606,,,N*66
68293 VERBOSE:RECVCS:1C CALCCS:31
68297 VERBOSE:$GNVTG,000.0,T,,,000.0,K,N*1C
68333 VERBOSE:RECVCS:44 CALCCS:44
68338 VERBOSE:$GNZDA,120052.000,28,06,2006,00,00*44
69209 VERBOSE:RECVCS:76 CALCCS:76
69213 VERBOSE:$GNGGA,213757.000,0000.0000,N,00000.0000,E,0,00,0.0,0.0,M,0.0,M,,0000*76
69262 VERBOSE:RECVCS:5A CALCCS:3A
69266 VERBOSE:$GNGLL,0000.0000000,E,213757.000,V,N*5A
69303 VERBOSE:RECVCS:2E CALCCS:2E
69307 VERBOSE:$GNGSA,A,1,,,,,,,,,,,0.0,0.0,0.0*2E
69378 VERBOSE:RECVCS:60 CALCCS:50
69382 VERBOSE:$GNRMC,213757.00,V,0000.0000,N,00000.0000,E,000.0,000.0,310719,,,N*60
69419 VERBOSE:RECVCS:1C CALCCS:31
69424 VERBOSE:$GNVTG,000.0,T,,,000.0,K,N*1C
69460 VERBOSE:RECVCS:42 CALCCS:42
69465 VERBOSE:$GNZDA,213757.000,31,07,2019,00,00*42
70096 VERBOSE:RECVCS:79 CALCCS:79
70100 VERBOSE:$GNGGA,213758.000,0000.0000,N,00000.0000,E,0,00,0.0,0.0,M,0.0,M,,0000*79
70149 VERBOSE:RECVCS:55 CALCCS:35
70153 VERBOSE:$GNGLL,0000.0000000,E,213758.000,V,N*55
70190 VERBOSE:RECVCS:2E CALCCS:2E
70194 VERBOSE:$GNGSA,A,1,,,,,,,,,,,0.0,0.0,0.0*2E
70249 VERBOSE:RECVCS:4D CALCCS:61
70253 VERBOSE:$GPGSV,1,1,03,1500,000,34,16,00,000,27,20,00,000,37*4D
70324 VERBOSE:RECVCS:6F CALCCS:09
70329 VERBOSE:$GNRMC,213758.0000.0000,N,00000.0000,E,000.0,000.0,310719,,,N*6F
70366 VERBOSE:RECVCS:1C CALCCS:7F
70370 VERBOSE:$GNVTG,000.0,T,,N,000.0,K,N*1C
70406 VERBOSE:RECVCS:4D CALCCS:4D
70411 VERBOSE:$GNZDA,213758.000,31,07,2019,00,00*4D
71096 VERBOSE:RECVCS:78 CALCCS:78
71101 VERBOSE:$GNGGA,213759.000,0000.0000,N,00000.0000,E,0,00,0.0,0.0,M,0.0,M,,0000*78
71149 VERBOSE:RECVCS:54 CALCCS:34
71154 VERBOSE:$GNGLL,0000.0000000,E,213759.000,V,N*54
71190 VERBOSE:RECVCS:2E CALCCS:2E
71195 VERBOSE:$GNGSA,A,1,,,,,,,,,,,0.0,0.0,0.0*2E
71265 VERBOSE:RECVCS:6E CALCCS:5E
71270 VERBOSE:$GNRMC,213759.00,V,0000.0000,N,00000.0000,E,000.0,000.0,310719,,,N*6E
71307 VERBOSE:RECVCS:1C CALCCS:31
71311 VERBOSE:$GNVTG,000.0,T,,,000.0,K,N*1C
71348 VERBOSE:RECVCS:4C CALCCS:4C
71352 VERBOSE:$GNZDA,213759.000,31,07,2019,00,00*4C
72097 VERBOSE:RECVCS:7B CALCCS:7B
72102 VERBOSE:$GNGGA,213800.000,0000.0000,N,00000.0000,E,0,00,0.0,0.0,M,0.0,M,,0000*7B
72150 VERBOSE:RECVCS:57 CALCCS:37
72155 VERBOSE:$GNGLL,0000.0000000,E,213800.000,V,N*57
72191 VERBOSE:RECVCS:2E CALCCS:2E
72195 VERBOSE:$GNGSA,A,1,,,,,,,,,,,0.0,0.0,0.0*2E
72266 VERBOSE:RECVCS:6D CALCCS:5D
72271 VERBOSE:$GNRMC,213800.00,V,0000.0000,N,00000.0000,E,000.0,000.0,310719,,,N*6D
72308 VERBOSE:RECVCS:1C CALCCS:31
72312 VERBOSE:$GNVTG,000.0,T,,,000.0,K,N*1C
72348 VERBOSE:RECVCS:4F CALCCS:4F
72353 VERBOSE:$GNZDA,213800.000,31,07,2019,00,00*4F
73100 VERBOSE:RECVCS:7A CALCCS:7A
73104 VERBOSE:$GNGGA,213801.000,0000.0000,N,00000.0000,E,0,00,0.0,0.0,M,0.0,M,,0000*7A
73153 VERBOSE:RECVCS:56 CALCCS:36
73157 VERBOSE:$GNGLL,0000.0000000,E,213801.000,V,N*56
73194 VERBOSE:RECVCS:2E CALCCS:2E
73198 VERBOSE:$GNGSA,A,1,,,,,,,,,,,0.0,0.0,0.0*2E
73267 VERBOSE:RECVCS:79 CALCCS:55
73271 VERBOSE:$GPGSV,2,1,05,1500,000,35,16,00,000,27,20,00,000,37,29,00,000,38*79
73299 VERBOSE:RECVCS:49 CALCCS:66
73303 VERBOSE:$GPGSV,2,2,05,215*49
73374 VERBOSE:RECVCS:6C CALCCS:6C
73378 VERBOSE:$GNRMC,213801.000,V,0000.0000,N,00000.0000,E,000.0,000.0,310719,,,N*6C
73416 VERBOSE:RECVCS:1C CALCCS:1D
73420 VERBOSE:$GNVTG,000.0,T,,000.0,K,N*1C
73456 VERBOSE:RECVCS:4E CALCCS:4E
73461 VERBOSE:$GNZDA,213801.000,31,07,2019,00,00*4E
74102 VERBOSE:RECVCS:79 CALCCS:79
74107 VERBOSE:$GNGGA,213802.000,0000.0000,N,00000.0000,E,0,00,0.0,0.0,M,0.0,M,,0000*79
74155 VERBOSE:RECVCS:55 CALCCS:35
74160 VERBOSE:$GNGLL,0000.0000000,E,213802.000,V,N*55
74196 VERBOSE:RECVCS:2E CALCCS:2E
74201 VERBOSE:$GNGSA,A,1,,,,,,,,,,,0.0,0.0,0.0*2E
74271 VERBOSE:RECVCS:6F CALCCS:5F
74276 VERBOSE:$GNRMC,213802.00,V,0000.0000,N,00000.0000,E,000.0,000.0,310719,,,N*6F
74313 VERBOSE:RECVCS:1C CALCCS:31
74317 VERBOSE:$GNVTG,000.0,T,,,000.0,K,N*1C
74354 VERBOSE:RECVCS:4D CALCCS:4D
74358 VERBOSE:$GNZDA,213802.000,31,07,2019,00,00*4D
75140 VERBOSE:RECVCS:40 CALCCS:40
75144 VERBOSE:$GNGGA,213802.225,3424.8782,N,11950.5971,W,1,04,2.2,34.3,M,-35.6,M,,0000*40
75193 VERBOSE:RECVCS:58 CALCCS:08
75197 VERBOSE:$GNGLL,3424.878271,W,213802.225,A,A*58
75242 VERBOSE:RECVCS:3A CALCCS:24
75246 VERBOSE:$GPGSA,A,3,15,209,21,,,,,,,,,5.1,2.2,4.6*3A
75317 VERBOSE:RECVCS:62 CALCCS:3A
75322 VERBOSE:$GNRMC,213802.22,3424.8782,N,11950.5971,W,000.0,000.0,310719,,,A*62
75359 VERBOSE:RECVCS:13 CALCCS:3E
75363 VERBOSE:$GNVTG,000.0,T,,,000.0,K,A*13
75399 VERBOSE:RECVCS:48 CALCCS:48
75404 VERBOSE:$GNZDA,213802.225,31,07,2019,00,00*48
76155 VERBOSE:RECVCS:42 CALCCS:42
76160 VERBOSE:$GNGGA,213803.000,3424.8777,N,11950.5975,W,1,05,1.8,34.3,M,-35.6,M,,0000*42
76208 VERBOSE:RECVCS:52 CALCCS:02
76213 VERBOSE:$GNGLL,3424.877775,W,213803.000,A,A*52
76260 VERBOSE:RECVCS:34 CALCCS:2A
76264 VERBOSE:$GPGSA,A,3,15,206,29,21,,,,,,,,3.7,1.8,3.2*34
76333 VERBOSE:RECVCS:7E CALCCS:55
76337 VERBOSE:$GPGSV,3,1,09,29,102,38,21,50,305,35,20,39,227,37,15,36,122,36*7E
76406 VERBOSE:RECVCS:7A CALCCS:6A
76410 VERBOSE:$GPGSV,3,2,09,2633,13,23,081,09,25,22,192,08,05,17,044,06*7A
76438 VERBOSE:RECVCS:43 CALCCS:73
76442 VERBOSE:$GPGSV,3,3,09,16,26*43
76505 VERBOSE:RECVCS:67 CALCCS:67
76509 VERBOSE:$GLGSV,2,1,06,72,62,073,,87,55,018,,65,50,170,34,86,25,093,*67
76546 VERBOSE:RECVCS:61 CALCCS:7D
76551 VERBOSE:$GLGSV,2,2,06,71,78,17,287,*61
76621 VERBOSE:RECVCS:68 CALCCS:68
76626 VERBOSE:$GNRMC,213803.000,A,3424.8777,N,11950.5975,W,000.0,000.0,310719,,,A*68
76663 VERBOSE:RECVCS:13 CALCCS:12
76668 VERBOSE:$GNVTG,000.0,T,,000.0,K,A*13
76704 VERBOSE:RECVCS:4C CALCCS:4C
76708 VERBOSE:$GNZDA,213803.000,31,07,2019,00,00*4C
77156 VERBOSE:RECVCS:4E CALCCS:4E
77160 VERBOSE:$GNGGA,213804.000,3424.8770,N,11950.5979,W,1,05,1.8,34.3,M,-35.6,M,,0000*4E
77209 VERBOSE:RECVCS:5E CALCCS:0E
77213 VERBOSE:$GNGLL,3424.877079,W,213804.000,A,A*5E
77260 VERBOSE:RECVCS:34 CALCCS:2A
77265 VERBOSE:$GPGSA,A,3,15,206,29,21,,,,,,,,3.7,1.8,3.2*34
77335 VERBOSE:RECVCS:64 CALCCS:39
77340 VERBOSE:$GNRMC,213804.00,3424.8770,N,11950.5979,W,000.0,000.0,310719,,,A*64
77377 VERBOSE:RECVCS:13 CALCCS:3E
77381 VERBOSE:$GNVTG,000.0,T,,,000.0,K,A*13
77418 VERBOSE:RECVCS:4B CALCCS:4B
77422 VERBOSE:$GNZDA,213804.000,31,07,2019,00,00*4B
78161 VERBOSE:RECVCS:4F CALCCS:4F
78165 VERBOSE:$GNGGA,213805.000,3424.8763,N,11950.5984,W,1,05,1.8,34.3,M,-35.6,M,,0000*4F
78214 VERBOSE:RECVCS:5F CALCCS:0F
78219 VERBOSE:$GNGLL,3424.876384,W,213805.000,A,A*5F
78265 VERBOSE:RECVCS:34 CALCCS:2A
78270 VERBOSE:$GPGSA,A,3,15,206,29,21,,,,,,,,3.7,1.8,3.2*34
78340 VERBOSE:RECVCS:65 CALCCS:38
78345 VERBOSE:$GNRMC,213805.00,3424.8763,N,11950.5984,W,000.0,000.0,310719,,,A*65
78382 VERBOSE:RECVCS:13 CALCCS:3E
78386 VERBOSE:$GNVTG,000.0,T,,,000.0,K,A*13
78423 VERBOSE:RECVCS:4A CALCCS:4A
78427 VERBOSE:$GNZDA,213805.000,31,07,2019,00,00*4A
79166 VERBOSE:RECVCS:4C CALCCS:4C
79171 VERBOSE:$GNGGA,213806.000,3424.8760,N,11950.5987,W,1,05,1.8,34.3,M,-35.6,M,,0000*4C
79220 VERBOSE:RECVCS:5C CALCCS:0C
79224 VERBOSE:$GNGLL,3424.876087,W,213806.000,A,A*5C
79271 VERBOSE:RECVCS:34 CALCCS:2A
79275 VERBOSE:$GPGSA,A,3,15,206,29,21,,,,,,,,3.7,1.8,3.2*34
79344 VERBOSE:RECVCS:7C CALCCS:57
79348 VERBOSE:$GPGSV,3,1,09,29,102,38,21,50,305,37,20,39,227,37,15,36,122,36*7C
79417 VERBOSE:RECVCS:78 CALCCS:68
79421 VERBOSE:$GPGSV,3,2,09,2634,13,23,081,08,25,22,192,08,05,17,044,02*78
79449 VERBOSE:RECVCS:43 CALCCS:73
79453 VERBOSE:$GPGSV,3,3,09,16,26*43
79518 VERBOSE:RECVCS:60 CALCCS:60
79522 VERBOSE:$GLGSV,2,1,06,72,62,073,,87,55,018,33,65,50,170,33,86,25,093,*60
79559 VERBOSE:RECVCS:61 CALCCS:7D
79564 VERBOSE:$GLGSV,2,2,06,71,78,17,287,*61
79635 VERBOSE:RECVCS:66 CALCCS:66
79639 VERBOSE:$GNRMC,213806.000,A,3424.8760,N,11950.5987,W,000.0,000.0,310719,,,A*66
79676 VERBOSE:RECVCS:13 CALCCS:12
79681 VERBOSE:$GNVTG,000.0,T,,000.0,K,A*13
79717 VERBOSE:RECVCS:49 CALCCS:49
79721 VERBOSE:$GNZDA,213806.000,31,07,2019,00,00*49
79942 VERBOSE:RECVCS:47 CALCCS:47
79947 VERBOSE:$GNGGA,213807.000,3424.8795,N,11950.5964,W,1,05,1.8,33.9,M,-35.6,M,,0000*47
79995 VERBOSE:RECVCS:5A CALCCS:0A
80000 VERBOSE:$GNGLL,3424.879564,W,213807.000,A,A*5A
80046 VERBOSE:RECVCS:34 CALCCS:2A
80051 VERBOSE:$GPGSA,A,3,15,206,29,21,,,,,,,,3.7,1.8,3.2*34
80121 VERBOSE:RECVCS:60 CALCCS:3D
80126 VERBOSE:$GNRMC,213807.00,3424.8795,N,11950.5964,W,000.0,000.0,310719,,,A*60
80163 VERBOSE:RECVCS:13 CALCCS:3E
80168 VERBOSE:$GNVTG,000.0,T,,,000.0,K,A*13
80204 VERBOSE:RECVCS:48 CALCCS:48
80208 VERBOSE:$GNZDA,213807.000,31,07,2019,00,00*48
80975 VERBOSE:RECVCS:45 CALCCS:45
80980 VERBOSE:$GNGGA,213808.000,3424.8796,N,11950.5964,W,1,05,1.8,33.7,M,-35.6,M,,0000*45
81028 VERBOSE:RECVCS:56 CALCCS:06
81033 VERBOSE:$GNGLL,3424.879664,W,213808.000,A,A*56
81080 VERBOSE:RECVCS:34 CALCCS:2A
81084 VERBOSE:$GPGSA,A,3,15,206,29,21,,,,,,,,3.7,1.8,3.2*34
81155 VERBOSE:RECVCS:6C CALCCS:31
81159 VERBOSE:$GNRMC,213808.00,3424.8796,N,11950.5964,W,000.0,000.0,310719,,,A*6C
81196 VERBOSE:RECVCS:13 CALCCS:3E
81201 VERBOSE:$GNVTG,000.0,T,,,000.0,K,A*13
81237 VERBOSE:RECVCS:47 CALCCS:47
81241 VERBOSE:$GNZDA,213808.000,31,07,2019,00,00*47
81970 VERBOSE:RECVCS:46 CALCCS:46
81974 VERBOSE:$GNGGA,213809.000,3424.8796,N,11950.5964,W,1,05,1.8,33.5,M,-35.6,M,,0000*46
82023 VERBOSE:RECVCS:57 CALCCS:07
82027 VERBOSE:$GNGLL,3424.879664,W,213809.000,A,A*57
82074 VERBOSE:RECVCS:34 CALCCS:2A
82078 VERBOSE:$GPGSA,A,3,15,206,29,21,,,,,,,,3.7,1.8,3.2*34
82147 VERBOSE:RECVCS:7D CALCCS:56
82151 VERBOSE:$GPGSV,3,1,09,29,102,38,21,50,305,37,20,39,227,36,15,36,122,36*7D
82220 VERBOSE:RECVCS:70 CALCCS:60
82224 VERBOSE:$GPGSV,3,2,09,2635,13,23,081,09,25,22,192,03,05,17,044,01*70
82252 VERBOSE:RECVCS:42 CALCCS:72
82257 VERBOSE:$GPGSV,3,3,09,16,27*42
82323 VERBOSE:RECVCS:65 CALCCS:65
82328 VERBOSE:$GLGSV,2,1,06,72,62,073,,87,55,018,33,65,50,170,32,86,25,093,26*65
82369 VERBOSE:RECVCS:68 CALCCS:46
82374 VERBOSE:$GLGSV,2,2,06,719,78,17,287,31*68
82444 VERBOSE:RECVCS:6D CALCCS:6D
82449 VERBOSE:$GNRMC,213809.000,A,3424.8796,N,11950.5964,W,000.0,000.0,310719,,,A*6D
82486 VERBOSE:RECVCS:13 CALCCS:12
82490 VERBOSE:$GNVTG,000.0,T,,000.0,K,A*13
82527 VERBOSE:RECVCS:46 CALCCS:46
82531 VERBOSE:$GNZDA,213809.000,31,07,2019,00,00*46
83005 VERBOSE:RECVCS:4F CALCCS:4F
83010 VERBOSE:$GNGGA,213810.000,3424.8796,N,11950.5964,W,1,12,0.8,33.3,M,-35.6,M,,0000*4F
83058 VERBOSE:RECVCS:5F CALCCS:0F
83063 VERBOSE:$GNGLL,3424.879664,W,213810.000,A,A*5F
83112 VERBOSE:RECVCS:2B CALCCS:35
83116 VERBOSE:$GNGSA,A,3,15,206,29,21,25,,,,,,,1.6,0.8,1.4*2B
83165 VERBOSE:RECVCS:28 CALCCS:27
83169 VERBOSE:$GNGSA,A,3,65,7178,72,86,,,,,,,1.6,0.8,1.4*28
83240 VERBOSE:RECVCS:65 CALCCS:38
83244 VERBOSE:$GNRMC,213810.00,3424.8796,N,11950.5964,W,000.0,000.0,310719,,,A*65
83282 VERBOSE:RECVCS:13 CALCCS:3E
83286 VERBOSE:$GNVTG,000.0,T,,,000.0,K,A*13
83322 VERBOSE:RECVCS:4E CALCCS:4E
83327 VERBOSE:$GNZDA,213810.000,31,07,2019,00,00*4E
84020 VERBOSE:RECVCS:4F CALCCS:4F
84025 VERBOSE:$GNGGA,213811.000,3424.8795,N,11950.5964,W,1,12,0.8,33.1,M,-35.6,M,,0000*4F
84073 VERBOSE:RECVCS:5D CALCCS:0D
84078 VERBOSE:$GNGLL,3424.879564,W,213811.000,A,A*5D
84127 VERBOSE:RECVCS:2B CALCCS:35
84131 VERBOSE:$GNGSA,A,3,15,206,29,21,25,,,,,,,1.6,0.8,1.4*2B
84180 VERBOSE:RECVCS:28 CALCCS:27
84184 VERBOSE:$GNGSA,A,3,65,7178,72,86,,,,,,,1.6,0.8,1.4*28
84255 VERBOSE:RECVCS:67 CALCCS:3A
84259 VERBOSE:$GNRMC,213811.00,3424.8795,N,11950.5964,W,000.0,000.0,310719,,,A*67
84296 VERBOSE:RECVCS:13 CALCCS:3E
84301 VERBOSE:$GNVTG,000.0,T,,,000.0,K,A*13
84337 VERBOSE:RECVCS:4F CALCCS:4F
84342 VERBOSE:$GNZDA,213811.000,31,07,2019,00,00*4F
85004 VERBOSE:RECVCS:4C CALCCS:4C
85009 VERBOSE:$GNGGA,213812.000,3424.8795,N,11950.5964,W,1,12,0.8,33.1,M,-35.6,M,,0000*4C
85057 VERBOSE:RECVCS:5E CALCCS:0E
85062 VERBOSE:$GNGLL,3424.879564,W,213812.000,A,A*5E
85110 VERBOSE:RECVCS:2B CALCCS:35
85115 VERBOSE:$GNGSA,A,3,15,206,29,21,25,,,,,,,1.6,0.8,1.4*2B
85164 VERBOSE:RECVCS:28 CALCCS:27
85168 VERBOSE:$GNGSA,A,3,65,7178,72,86,,,,,,,1.6,0.8,1.4*28
85237 VERBOSE:RECVCS:7F CALCCS:54
85241 VERBOSE:$GPGSV,3,1,09,29,102,38,21,50,305,37,20,39,227,37,15,36,122,35*7F
85307 VERBOSE:RECVCS:7A CALCCS:6A
85312 VERBOSE:$GPGSV,3,2,09,2634,13,23,081,08,25,22,192,19,05,17,044,*7A
85340 VERBOSE:RECVCS:43 CALCCS:73
85344 VERBOSE:$GPGSV,3,3,09,16,26*43
85413 VERBOSE:RECVCS:60 CALCCS:60
85417 VERBOSE:$GLGSV,2,1,06,72,62,073,30,87,55,018,34,65,50,170,33,86,25,093,26*60
85459 VERBOSE:RECVCS:65 CALCCS:4B
85463 VERBOSE:$GLGSV,2,2,06,717,78,17,287,32*65
85534 VERBOSE:RECVCS:64 CALCCS:64
85538 VERBOSE:$GNRMC,213812.000,A,3424.8795,N,11950.5964,W,000.0,000.0,310719,,,A*64
85575 VERBOSE:RECVCS:13 CALCCS:12
85580 VERBOSE:$GNVTG,000.0,T,,000.0,K,A*13
85616 VERBOSE:RECVCS:4C CALCCS:4C
85621 VERBOSE:$GNZDA,213812.000,31,07,2019,00,00*4C
86007 VERBOSE:RECVCS:43 CALCCS:43
86012 VERBOSE:$GNGGA,213813.000,3424.8795,N,11950.5965,W,1,13,0.7,33.0,M,-35.6,M,,0000*43
86060 VERBOSE:RECVCS:5E CALCCS:0E
86065 VERBOSE:$GNGLL,3424.879565,W,213813.000,A,A*5E
86116 VERBOSE:RECVCS:22 CALCCS:3C
86120 VERBOSE:$GNGSA,A,3,15,206,29,21,13,25,,,,,,1.5,0.7,1.3*22
86169 VERBOSE:RECVCS:23 CALCCS:2C
86173 VERBOSE:$GNGSA,A,3,65,7178,72,86,,,,,,,1.5,0.7,1.3*23
86244 VERBOSE:RECVCS:64 CALCCS:39
86248 VERBOSE:$GNRMC,213813.00,3424.8795,N,11950.5965,W,000.0,000.0,310719,,,A*64
86286 VERBOSE:RECVCS:13 CALCCS:3E
86290 VERBOSE:$GNVTG,000.0,T,,,000.0,K,A*13
86326 VERBOSE:RECVCS:4D CALCCS:4D
86331 VERBOSE:$GNZDA,213813.000,31,07,2019,00,00*4D
87007 VERBOSE:RECVCS:44 CALCCS:44
87012 VERBOSE:$GNGGA,213814.000,3424.8795,N,11950.5965,W,1,13,0.7,33.0,M,-35.6,M,,0000*44
87060 VERBOSE:RECVCS:59 CALCCS:09
87065 VERBOSE:$GNGLL,3424.879565,W,213814.000,A,A*59
87116 VERBOSE:RECVCS:22 CALCCS:3C
87120 VERBOSE:$GNGSA,A,3,15,206,29,21,13,25,,,,,,1.5,0.7,1.3*22
87169 VERBOSE:RECVCS:23 CALCCS:2C
87173 VERBOSE:$GNGSA,A,3,65,7178,72,86,,,,,,,1.5,0.7,1.3*23
87244 VERBOSE:RECVCS:63 CALCCS:3E
87248 VERBOSE:$GNRMC,213814.00,3424.8795,N,11950.5965,W,000.0,000.0,310719,,,A*63
87286 VERBOSE:RECVCS:13 CALCCS:3E
87290 VERBOSE:$GNVTG,000.0,T,,,000.0,K,A*13
87326 VERBOSE:RECVCS:4A CALCCS:4A
87331 VERBOSE:$GNZDA,213814.000,31,07,2019,00,00*4A
88008 VERBOSE:RECVCS:45 CALCCS:45
88013 VERBOSE:$GNGGA,213815.000,3424.8795,N,11950.5965,W,1,13,0.7,33.0,M,-35.6,M,,0000*45
88061 VERBOSE:RECVCS:58 CALCCS:08
88066 VERBOSE:$GNGLL,3424.879565,W,213815.000,A,A*58
88117 VERBOSE:RECVCS:22 CALCCS:3C
88121 VERBOSE:$GNGSA,A,3,15,206,29,21,13,25,,,,,,1.5,0.7,1.3*22
88170 VERBOSE:RECVCS:23 CALCCS:2C
88174 VERBOSE:$GNGSA,A,3,65,7178,72,86,,,,,,,1.5,0.7,1.3*23
88243 VERBOSE:RECVCS:7F CALCCS:54
88247 VERBOSE:$GPGSV,3,1,09,29,102,38,21,50,305,37,20,39,227,37,15,36,122,35*7F
88314 VERBOSE:RECVCS:70 CALCCS:60
88318 VERBOSE:$GPGSV,3,2,09,2635,13,23,081,19,25,22,192,21,05,17,044,*70
88346 VERBOSE:RECVCS:43 CALCCS:73
88350 VERBOSE:$GPGSV,3,3,09,16,26*43
88419 VERBOSE:RECVCS:68 CALCCS:68
88423 VERBOSE:$GLGSV,2,1,06,72,62,073,29,87,55,018,34,65,50,170,32,86,25,093,27*68
88465 VERBOSE:RECVCS:64 CALCCS:4A
88469 VERBOSE:$GLGSV,2,2,06,716,78,17,287,32*64
88540 VERBOSE:RECVCS:62 CALCCS:62
88544 VERBOSE:$GNRMC,213815.000,A,3424.8795,N,11950.5965,W,000.0,000.0,310719,,,A*62
88582 VERBOSE:RECVCS:13 CALCCS:12
88586 VERBOSE:$GNVTG,000.0,T,,000.0,K,A*13
88622 VERBOSE:RECVCS:4B CALCCS:4B
88627 VERBOSE:$GNZDA,213815.000,31,07,2019,00,00*4B
89010 VERBOSE:RECVCS:46 CALCCS:46
89015 VERBOSE:$GNGGA,213816.000,3424.8795,N,11950.5965,W,1,13,0.7,33.0,M,-35.6,M,,0000*46
89063 VERBOSE:RECVCS:5B CALCCS:0B
89068 VERBOSE:$GNGLL,3424.879565,W,213816.000,A,A*5B
89119 VERBOSE:RECVCS:22 CALCCS:3C
89123 VERBOSE:$GNGSA,A,3,15,206,29,21,13,25,,,,,,1.5,0.7,1.3*22
89172 VERBOSE:RECVCS:23 CALCCS:2C
89176 VERBOSE:$GNGSA,A,3,65,7178,72,86,,,,,,,1.5,0.7,1.3*23
89247 VERBOSE:RECVCS:61 CALCCS:3C
89251 VERBOSE:$GNRMC,213816.00,3424.8795,N,11950.5965,W,000.0,000.0,310719,,,A*61
89289 VERBOSE:RECVCS:13 CALCCS:3E
89293 VERBOSE:$GNVTG,000.0,T,,,000.0,K,A*13
89329 VERBOSE:RECVCS:48 CALCCS:48
89334 VERBOSE:$GNZDA,213816.000,31,07,2019,00,00*48
90018 VERBOSE:RECVCS:47 CALCCS:47
90023 VERBOSE:$GNGGA,213817.000,3424.8795,N,11950.5965,W,1,13,0.7,33.0,M,-35.6,M,,0000*47
90071 VERBOSE:RECVCS:5A CALCCS:0A
90076 VERBOSE:$GNGLL,3424.879565,W,213817.000,A,A*5A
90127 VERBOSE:RECVCS:22 CALCCS:3C
90131 VERBOSE:$GNGSA,A,3,15,206,29,21,13,25,,,,,,1.5,0.7,1.3*22
90180 VERBOSE:RECVCS:23 CALCCS:2C
90184 VERBOSE:$GNGSA,A,3,65,7178,72,86,,,,,,,1.5,0.7,1.3*23
90255 VERBOSE:RECVCS:60 CALCCS:3D
90259 VERBOSE:$GNRMC,213817.00,3424.8795,N,11950.5965,W,000.0,000.0,310719,,,A*60
90297 VERBOSE:RECVCS:13 CALCCS:3E
90301 VERBOSE:$GNVTG,000.0,T,,,000.0,K,A*13
90337 VERBOSE:RECVCS:49 CALCCS:49
90342 VERBOSE:$GNZDA,213817.000,31,07,2019,00,00*49
91030 VERBOSE:RECVCS:48 CALCCS:48
91034 VERBOSE:$GNGGA,213818.000,3424.8795,N,11950.5965,W,1,13,0.7,33.0,M,-35.6,M,,0000*48
91083 VERBOSE:RECVCS:55 CALCCS:05
91087 VERBOSE:$GNGLL,3424.879565,W,213818.000,A,A*55
91138 VERBOSE:RECVCS:22 CALCCS:3C
91143 VERBOSE:$GNGSA,A,3,15,206,29,21,13,25,,,,,,1.5,0.7,1.3*22
91191 VERBOSE:RECVCS:23 CALCCS:2C
91196 VERBOSE:$GNGSA,A,3,65,7178,72,86,,,,,,,1.5,0.7,1.3*23
91264 VERBOSE:RECVCS:7F CALCCS:54
91269 VERBOSE:$GPGSV,3,1,09,29,103,38,21,50,305,37,20,39,227,36,15,36,122,35*7F
91337 VERBOSE:RECVCS:7C CALCCS:6B
91342 VERBOSE:$GPGSV,3,2,09,2634,13,23,081,19,25,22,191,21,05,17,044,09*7C
91370 VERBOSE:RECVCS:40 CALCCS:70
91374 VERBOSE:$GPGSV,3,3,09,16,25*40
91443 VERBOSE:RECVCS:66 CALCCS:66
91447 VERBOSE:$GLGSV,2,1,06,72,62,073,30,87,55,018,33,65,50,170,32,86,25,093,26*66
91488 VERBOSE:RECVCS:67 CALCCS:49
91493 VERBOSE:$GLGSV,2,2,06,715,78,17,287,32*67
91564 VERBOSE:RECVCS:6F CALCCS:6F
91568 VERBOSE:$GNRMC,213818.000,A,3424.8795,N,11950.5965,W,000.0,000.0,310719,,,A*6F
91605 VERBOSE:RECVCS:13 CALCCS:12
91610 VERBOSE:$GNVTG,000.0,T,,000.0,K,A*13
91646 VERBOSE:RECVCS:46 CALCCS:46
91650 VERBOSE:$GNZDA,213818.000,31,07,2019,00,00*46
92020 VERBOSE:RECVCS:49 CALCCS:49
92024 VERBOSE:$GNGGA,213819.000,3424.8795,N,11950.5965,W,1,13,0.7,33.0,M,-35.6,M,,0000*49
92073 VERBOSE:RECVCS:54 CALCCS:04
92077 VERBOSE:$GNGLL,3424.879565,W,213819.000,A,A*54
92128 VERBOSE:RECVCS:22 CALCCS:3C
92133 VERBOSE:$GNGSA,A,3,15,206,29,21,13,25,,,,,,1.5,0.7,1.3*22
92181 VERBOSE:RECVCS:23 CALCCS:2C
92186 VERBOSE:$GNGSA,A,3,65,7178,72,86,,,,,,,1.5,0.7,1.3*23
92256 VERBOSE:RECVCS:6E CALCCS:33
92261 VERBOSE:$GNRMC,213819.00,3424.8795,N,11950.5965,W,000.0,000.0,310719,,,A*6E
92298 VERBOSE:RECVCS:13 CALCCS:3E
92303 VERBOSE:$GNVTG,000.0,T,,,000.0,K,A*13
92339 VERBOSE:RECVCS:47 CALCCS:47
92343 VERBOSE:$GNZDA,213819.000,31,07,2019,00,00*47
93020 VERBOSE:RECVCS:43 CALCCS:43
93024 VERBOSE:$GNGGA,213820.000,3424.8795,N,11950.5965,W,1,13,0.7,33.0,M,-35.6,M,,0000*43
93073 VERBOSE:RECVCS:5E CALCCS:0E
93078 VERBOSE:$GNGLL,3424.879565,W,213820.000,A,A*5E
93128 VERBOSE:RECVCS:22 CALCCS:3C
93133 VERBOSE:$GNGSA,A,3,15,206,29,21,13,25,,,,,,1.5,0.7,1.3*22
93181 VERBOSE:RECVCS:23 CALCCS:2C
93186 VERBOSE:$GNGSA,A,3,65,7178,72,86,,,,,,,1.5,0.7,1.3*23
93257 VERBOSE:RECVCS:64 CALCCS:39
93261 VERBOSE:$GNRMC,213820.00,3424.8795,N,11950.5965,W,000.0,000.0,310719,,,A*64
93298 VERBOSE:RECVCS:13 CALCCS:3E
