
281251 VERBOSE:Calculated checksum: 53 Received Checksum: 53
281262 VERBOSE:date:0,time:223041.000000,lat:3424.868600degN,lon:11950.571300degW,alt:0.000000,fix:0,sat:0,dil:0.000000
281294 VERBOSE:$GNGGA,223041.000,3424.8686,N,11950.5713,W,1,05,2.3,-307.8,M,-35.6,M,,0000*53
281351 VERBOSE:Calculated checksum: 60 Received Checksum: 20
281362 VERBOSE:date:0,time:0.000000,lat:0.000000deg
281376 VERBOSE:$GNGLL,3424.8686.3,12.1*20
281475 VERBOSE:Calculated checksum: 3B Received Checksum: 65
281486 VERBOSE:date:0,time:0.000000,lat:0.000000deg
281500 VERBOSE:$GNGSA,A,3,87,71223041.000,A,3424.8686,N,11950.5713,W,000.0,267.3,300719,,,A*65
281557 VERBOSE:Calculated checksum: F Received Checksum: 40
281569 VERBOSE:date:0,time:0.000000,lat:0.000000deg
281582 VERBOSE:$GNVTG,267.3,T,,9,00,00*40
282236 VERBOSE:Calculated checksum: 50 Received Checksum: 50
282248 VERBOSE:date:0,time:223042.000000,lat:3424.868600degN,lon:11950.571300degW,alt:0.000000,fix:0,sat:0,dil:0.000000
282279 VERBOSE:$GNGGA,223042.000,3424.8686,N,11950.5713,W,1,05,2.3,-307.8,M,-35.6,M,,0000*50
282336 VERBOSE:Calculated checksum: 60 Received Checksum: 20
282348 VERBOSE:date:0,time:0.000000,lat:0.000000deg
282361 VERBOSE:$GNGLL,3424.8686.3,12.1*20
282460 VERBOSE:Calculated checksum: 38 Received Checksum: 66
282472 VERBOSE:date:0,time:0.000000,lat:0.000000deg
282486 VERBOSE:$GNGSA,A,3,87,71223042.000,A,3424.8686,N,11950.5713,W,000.0,267.3,300719,,,A*66
282543 VERBOSE:Calculated checksum: F Received Checksum: 43
282554 VERBOSE:date:0,time:0.000000,lat:0.000000deg
282568 VERBOSE:$GNVTG,267.3,T,,9,00,00*43
283234 VERBOSE:Calculated checksum: 51 Received Checksum: 51
283245 VERBOSE:date:0,time:223043.000000,lat:3424.868600degN,lon:11950.571300degW,alt:0.000000,fix:0,sat:0,dil:0.000000
283277 VERBOSE:$GNGGA,223043.000,3424.8686,N,11950.5713,W,1,05,2.3,-307.8,M,-35.6,M,,0000*51
283334 VERBOSE:Calculated checksum: 60 Received Checksum: 20
283345 VERBOSE:date:0,time:0.000000,lat:0.000000deg
283359 VERBOSE:$GNGLL,3424.8686.3,12.1*20
283456 VERBOSE:Calculated checksum: 23 Received Checksum: 7D
283467 VERBOSE:date:0,time:0.000000,lat:0.000000deg
283481 VERBOSE:$GNGSA,A,3,87,712,1,06,21,61,337,20,29,51,137,33,15,45,093,34,10,33,233,01*7D
283575 VERBOSE:Calculated checksum: 40 Received Checksum: 68
283586 VERBOSE:date:0,time:0.000000,lat:0.000000deg
283600 VERBOSE:$GPGSV,2,2,06,16,23,86,54,078,28,71,47,038,29,87,41,337,29*68
283670 VERBOSE:Calculated checksum: 1D Received Checksum: 51
283681 VERBOSE:date:0,time:0.000000,lat:0.000000deg
283695 VERBOSE:$GLGSV,3,2,09,85GLGSV,3,3,09,70,00,028,*51
283745 VERBOSE:Calculated checksum: 1 Received Checksum: 67
283756 VERBOSE:date:0,time:0.000000,lat:0.000000deg
283770 VERBOSE:$GNRMC,223043.0000719,,,A*67
283827 VERBOSE:Calculated checksum: 24 Received Checksum: 42
283839 VERBOSE:date:0,time:0.000000,lat:0.000000deg
283852 VERBOSE:$GNVTG,267.3,T,,000,30,07,2019,00,00*42
284249 VERBOSE:Calculated checksum: 56 Received Checksum: 56
284260 VERBOSE:date:0,time:223044.000000,lat:3424.868600degN,lon:11950.571300degW,alt:0.000000,fix:0,sat:0,dil:0.000000
284292 VERBOSE:$GNGGA,223044.000,3424.8686,N,11950.5713,W,1,05,2.3,-307.8,M,-35.6,M,,0000*56
284349 VERBOSE:Calculated checksum: 60 Received Checksum: 27
284360 VERBOSE:date:0,time:0.000000,lat:0.000000deg
284374 VERBOSE:$GNGLL,3424.8686.3,12.1*27
284473 VERBOSE:Calculated checksum: 3E Received Checksum: 60
284484 VERBOSE:date:0,time:0.000000,lat:0.000000deg
284498 VERBOSE:$GNGSA,A,3,87,71223044.000,A,3424.8686,N,11950.5713,W,000.0,267.3,300719,,,A*60
284555 VERBOSE:Calculated checksum: F Received Checksum: 45
284566 VERBOSE:date:0,time:0.000000,lat:0.000000deg
284580 VERBOSE:$GNVTG,267.3,T,,9,00,00*45
285237 VERBOSE:Calculated checksum: 57 Received Checksum: 57
285249 VERBOSE:date:0,time:223045.000000,lat:3424.868600degN,lon:11950.571300degW,alt:0.000000,fix:0,sat:0,dil:0.000000
285280 VERBOSE:$GNGGA,223045.000,3424.8686,N,11950.5713,W,1,05,2.3,-307.8,M,-35.6,M,,0000*57
285337 VERBOSE:Calculated checksum: 60 Received Checksum: 27
285349 VERBOSE:date:0,time:0.000000,lat:0.000000deg
285362 VERBOSE:$GNGLL,3424.8686.3,12.1*27
285461 VERBOSE:Calculated checksum: 3F Received Checksum: 61
285473 VERBOSE:date:0,time:0.000000,lat:0.000000deg
285486 VERBOSE:$GNGSA,A,3,87,71223045.000,A,3424.8686,N,11950.5713,W,000.0,267.3,300719,,,A*61
285544 VERBOSE:Calculated checksum: F Received Checksum: 44
285555 VERBOSE:date:0,time:0.000000,lat:0.000000deg
285569 VERBOSE:$GNVTG,267.3,T,,9,00,00*44
286241 VERBOSE:Calculated checksum: 54 Received Checksum: 54
286253 VERBOSE:date:0,time:223046.000000,lat:3424.868600degN,lon:11950.571300degW,alt:0.000000,fix:0,sat:0,dil:0.000000
286284 VERBOSE:$GNGGA,223046.000,3424.8686,N,11950.5713,W,1,05,2.3,-307.8,M,-35.6,M,,0000*54
286341 VERBOSE:Calculated checksum: 60 Received Checksum: 27
286353 VERBOSE:date:0,time:0.000000,lat:0.000000deg
286366 VERBOSE:$GNGLL,3424.8686.3,12.1*27
286463 VERBOSE:Calculated checksum: 2F Received Checksum: 71
286475 VERBOSE:date:0,time:0.000000,lat:0.000000deg
286488 VERBOSE:$GNGSA,A,3,87,712,1,06,21,61,337,16,29,51,137,32,15,45,093,34,10,33,233,09*71
286582 VERBOSE:Calculated checksum: 41 Received Checksum: 69
286593 VERBOSE:date:0,time:0.000000,lat:0.000000deg
286607 VERBOSE:$GPGSV,2,2,06,16,22,86,54,078,28,71,47,038,30,87,41,337,30*69
286677 VERBOSE:Calculated checksum: 1D Received Checksum: 51
286688 VERBOSE:date:0,time:0.000000,lat:0.000000deg
286702 VERBOSE:$GLGSV,3,2,09,85GLGSV,3,3,09,70,00,028,*51
286752 VERBOSE:Calculated checksum: 4 Received Checksum: 62
286763 VERBOSE:date:0,time:0.000000,lat:0.000000deg
286777 VERBOSE:$GNRMC,223046.0000719,,,A*62
286834 VERBOSE:Calculated checksum: 24 Received Checksum: 47
286846 VERBOSE:date:0,time:0.000000,lat:0.000000deg
286859 VERBOSE:$GNVTG,267.3,T,,000,30,07,2019,00,00*47
287235 VERBOSE:Calculated checksum: 55 Received Checksum: 55
287247 VERBOSE:date:0,time:223047.000000,lat:3424.868600degN,lon:11950.571300degW,alt:0.000000,fix:0,sat:0,dil:0.000000
287278 VERBOSE:$GNGGA,223047.000,3424.8686,N,11950.5713,W,1,05,2.3,-307.8,M,-35.6,M,,0000*55
287335 VERBOSE:Calculated checksum: 63 Received Checksum: 24
287347 VERBOSE:date:0,time:0.000000,lat:0.000000deg
287360 VERBOSE:$GNGLL,3424.8686.3,12.2*24
287459 VERBOSE:Calculated checksum: 3D Received Checksum: 63
287471 VERBOSE:date:0,time:0.000000,lat:0.000000deg
287485 VERBOSE:$GNGSA,A,3,87,71223047.000,A,3424.8686,N,11950.5713,W,000.0,267.3,300719,,,A*63
287542 VERBOSE:Calculated checksum: F Received Checksum: 46
287553 VERBOSE:date:0,time:0.000000,lat:0.000000deg
287567 VERBOSE:$GNVTG,267.3,T,,9,00,00*46
288254 VERBOSE:Calculated checksum: 5A Received Checksum: 5A
288265 VERBOSE:date:0,time:223048.000000,lat:3424.868600degN,lon:11950.571300degW,alt:0.000000,fix:0,sat:0,dil:0.000000
288297 VERBOSE:$GNGGA,223048.000,3424.8686,N,11950.5713,W,1,05,2.3,-307.8,M,-35.6,M,,0000*5A
288354 VERBOSE:Calculated checksum: 63 Received Checksum: 24
288365 VERBOSE:date:0,time:0.000000,lat:0.000000deg
288379 VERBOSE:$GNGLL,3424.8686.3,12.2*24
288478 VERBOSE:Calculated checksum: 32 Received Checksum: 6C
288489 VERBOSE:date:0,time:0.000000,lat:0.000000deg
288503 VERBOSE:$GNGSA,A,3,87,71223048.000,A,3424.8686,N,11950.5713,W,000.0,267.3,300719,,,A*6C
288560 VERBOSE:Calculated checksum: F Received Checksum: 49
288571 VERBOSE:date:0,time:0.000000,lat:0.000000deg
288585 VERBOSE:$GNVTG,267.3,T,,9,00,00*49
289261 VERBOSE:Calculated checksum: 5B Received Checksum: 5B
289273 VERBOSE:date:0,time:223049.000000,lat:3424.868600degN,lon:11950.571300degW,alt:0.000000,fix:0,sat:0,dil:0.000000
289304 VERBOSE:$GNGGA,223049.000,3424.8686,N,11950.5713,W,1,05,2.3,-307.8,M,-35.6,M,,0000*5B
289361 VERBOSE:Calculated checksum: 63 Received Checksum: 24
289373 VERBOSE:date:0,time:0.000000,lat:0.000000deg
289386 VERBOSE:$GNGLL,3424.8686.3,12.2*24
289483 VERBOSE:Calculated checksum: 25 Received Checksum: 7B
289495 VERBOSE:date:0,time:0.000000,lat:0.000000deg
289508 VERBOSE:$GNGSA,A,3,87,712,1,06,21,61,337,13,29,51,137,30,15,45,093,34,10,33,233,04*7B
289602 VERBOSE:Calculated checksum: 47 Received Checksum: 6A
289613 VERBOSE:date:0,time:0.000000,lat:0.000000deg
289627 VERBOSE:$GPGSV,2,2,06,13,21,86,54,078,31,71,47,038,30,87,41,337,29*6A
289697 VERBOSE:Calculated checksum: 1D Received Checksum: 51
289708 VERBOSE:date:0,time:0.000000,lat:0.000000deg
289722 VERBOSE:$GLGSV,3,2,09,85GLGSV,3,3,09,70,00,028,*51
289772 VERBOSE:Calculated checksum: B Received Checksum: 6D
289783 VERBOSE:date:0,time:0.000000,lat:0.000000deg
289797 VERBOSE:$GNRMC,223049.0000719,,,A*6D
289854 VERBOSE:Calculated checksum: 24 Received Checksum: 48
289866 VERBOSE:date:0,time:0.000000,lat:0.000000deg
289880 VERBOSE:$GNVTG,267.3,T,,000,30,07,2019,00,00*48
290244 VERBOSE:Calculated checksum: 53 Received Checksum: 53
290255 VERBOSE:date:0,time:223050.000000,lat:3424.868600degN,lon:11950.571300degW,alt:0.000000,fix:0,sat:0,dil:0.000000
290287 VERBOSE:$GNGGA,223050.000,3424.8686,N,11950.5713,W,1,05,2.3,-307.8,M,-35.6,M,,0000*53
290344 VERBOSE:Calculated checksum: 63 Received Checksum: 24
290355 VERBOSE:date:0,time:0.000000,lat:0.000000deg
290369 VERBOSE:$GNGLL,3424.8686.3,12.2*24
290468 VERBOSE:Calculated checksum: 3B Received Checksum: 65
290479 VERBOSE:date:0,time:0.000000,lat:0.000000deg
290493 VERBOSE:$GNGSA,A,3,87,71223050.000,A,3424.8686,N,11950.5713,W,000.0,267.3,300719,,,A*65
290550 VERBOSE:Calculated checksum: F Received Checksum: 40
290561 VERBOSE:date:0,time:0.000000,lat:0.000000deg
290575 VERBOSE:$GNVTG,267.3,T,,9,00,00*40
291265 VERBOSE:Calculated checksum: 52 Received Checksum: 52
291276 VERBOSE:date:0,time:223051.000000,lat:3424.868600degN,lon:11950.571300degW,alt:0.000000,fix:0,sat:0,dil:0.000000
291308 VERBOSE:$GNGGA,223051.000,3424.8686,N,11950.5713,W,1,05,2.3,-307.8,M,-35.6,M,,0000*52
291365 VERBOSE:Calculated checksum: 63 Received Checksum: 24
291376 VERBOSE:date:0,time:0.000000,lat:0.000000deg
291390 VERBOSE:$GNGLL,3424.8686.3,12.2*24
291489 VERBOSE:Calculated checksum: 3A Received Checksum: 64
291500 VERBOSE:date:0,time:0.000000,lat:0.000000deg
291514 VERBOSE:$GNGSA,A,3,87,71223051.000,A,3424.8686,N,11950.5713,W,000.0,267.3,300719,,,A*64
291571 VERBOSE:Calculated checksum: F Received Checksum: 41
291582 VERBOSE:date:0,time:0.000000,lat:0.000000deg
291596 VERBOSE:$GNVTG,267.3,T,,9,00,00*41
292258 VERBOSE:Calculated checksum: 51 Received Checksum: 51
292269 VERBOSE:date:0,time:223052.000000,lat:3424.868600degN,lon:11950.571300degW,alt:0.000000,fix:0,sat:0,dil:0.000000
292301 VERBOSE:$GNGGA,223052.000,3424.8686,N,11950.5713,W,1,05,2.3,-307.8,M,-35.6,M,,0000*51
292358 VERBOSE:Calculated checksum: 63 Received Checksum: 24
292369 VERBOSE:date:0,time:0.000000,lat:0.000000deg
292383 VERBOSE:$GNGLL,3424.8686.3,12.2*24
292480 VERBOSE:Calculated checksum: 29 Received Checksum: 77
292491 VERBOSE:date:0,time:0.000000,lat:0.000000deg
292505 VERBOSE:$GNGSA,A,3,87,712,1,07,21,61,337,20,29,51,137,29,15,45,093,34,10,33,233,01*77
292610 VERBOSE:Calculated checksum: 78 Received Checksum: 63
292622 VERBOSE:date:0,time:0.000000,lat:0.000000deg
292635 VERBOSE:$GPGSV,2,2,07,13,09,72,72,169,,86,54,078,30,71,47,038,26,87,41,337,25*63
292705 VERBOSE:Calculated checksum: 16 Received Checksum: 51
292717 VERBOSE:date:0,time:0.000000,lat:0.000000deg
292730 VERBOSE:$GLGSV,3,2,09,85GSV,3,3,09,70,00,028,*51
292780 VERBOSE:Calculated checksum: 32 Received Checksum: 67
292792 VERBOSE:date:0,time:0.000000,lat:0.000000deg
292805 VERBOSE:$GNRMC,223052.00300719,,,A*67
292862 VERBOSE:Calculated checksum: 14 Received Checksum: 42
292874 VERBOSE:date:0,time:0.000000,lat:0.000000deg
292888 VERBOSE:$GNVTG,267.3,T,,00,30,07,2019,00,00*42
293233 VERBOSE:Calculated checksum: 50 Received Checksum: 50
293245 VERBOSE:date:0,time:223053.000000,lat:3424.868600degN,lon:11950.571300degW,alt:0.000000,fix:0,sat:0,dil:0.000000
293276 VERBOSE:$GNGGA,223053.000,3424.8686,N,11950.5713,W,1,05,2.3,-307.8,M,-35.6,M,,0000*50
293333 VERBOSE:Calculated checksum: 63 Received Checksum: 24
293344 VERBOSE:date:0,time:0.000000,lat:0.000000deg
293358 VERBOSE:$GNGLL,3424.8686.3,12.2*24
293457 VERBOSE:Calculated checksum: 38 Received Checksum: 66
293469 VERBOSE:date:0,time:0.000000,lat:0.000000deg
293482 VERBOSE:$GNGSA,A,3,87,71223053.000,A,3424.8686,N,11950.5713,W,000.0,267.3,300719,,,A*66
293539 VERBOSE:Calculated checksum: F Received Checksum: 43
293551 VERBOSE:date:0,time:0.000000,lat:0.000000deg
293564 VERBOSE:$GNVTG,267.3,T,,9,00,00*43
294233 VERBOSE:Calculated checksum: 57 Received Checksum: 57
294244 VERBOSE:date:0,time:223054.000000,lat:3424.868600degN,lon:11950.571300degW,alt:0.000000,fix:0,sat:0,dil:0.000000
294276 VERBOSE:$GNGGA,223054.000,3424.8686,N,11950.5713,W,1,05,2.3,-307.8,M,-35.6,M,,0000*57
294333 VERBOSE:Calculated checksum: 63 Received Checksum: 25
294344 VERBOSE:date:0,time:0.000000,lat:0.000000deg
294358 VERBOSE:$GNGLL,3424.8686.3,12.2*25
294457 VERBOSE:Calculated checksum: 3F Received Checksum: 61
294468 VERBOSE:date:0,time:0.000000,lat:0.000000deg
294482 VERBOSE:$GNGSA,A,3,87,71223054.000,A,3424.8686,N,11950.5713,W,000.0,267.3,300719,,,A*61
294539 VERBOSE:Calculated checksum: F Received Checksum: 44
294550 VERBOSE:date:0,time:0.000000,lat:0.000000deg
294564 VERBOSE:$GNVTG,267.3,T,,9,00,00*44
295235 VERBOSE:Calculated checksum: 56 Received Checksum: 56
295247 VERBOSE:date:0,time:223055.000000,lat:3424.868600degN,lon:11950.571300degW,alt:0.000000,fix:0,sat:0,dil:0.000000
295278 VERBOSE:$GNGGA,223055.000,3424.8686,N,11950.5713,W,1,05,2.3,-307.8,M,-35.6,M,,0000*56
295335 VERBOSE:Calculated checksum: 63 Received Checksum: 25
295347 VERBOSE:date:0,time:0.000000,lat:0.000000deg
295360 VERBOSE:$GNGLL,3424.8686.3,12.2*25
295455 VERBOSE:Calculated checksum: 24 Received Checksum: 7A
295466 VERBOSE:date:0,time:0.000000,lat:0.000000deg
295480 VERBOSE:$GNGSA,A,3,87,712,1,07,21,61,337,20,29,51,137,30,15,45,093,30,10,33,233,*7A
295585 VERBOSE:Calculated checksum: 43 Received Checksum: 69
295597 VERBOSE:date:0,time:0.000000,lat:0.000000deg
295611 VERBOSE:$GPGSV,2,2,07,131,09,72,72,169,,86,54,078,31,71,47,038,29,87,41,337,30*69
295680 VERBOSE:Calculated checksum: 51 Received Checksum: 51
295692 VERBOSE:date:0,time:0.000000,lat:0.000000deg
295705 VERBOSE:$GLGSV,3,2,09,85SV,3,3,09,70,00,028,*51
295755 VERBOSE:Calculated checksum: 35 Received Checksum: 60
295767 VERBOSE:date:0,time:0.000000,lat:0.000000deg
295780 VERBOSE:$GNRMC,223055.00300719,,,A*60
295838 VERBOSE:Calculated checksum: 14 Received Checksum: 45
295849 VERBOSE:date:0,time:0.000000,lat:0.000000deg
295863 VERBOSE:$GNVTG,267.3,T,,00,30,07,2019,00,00*45
296232 VERBOSE:Calculated checksum: 55 Received Checksum: 55
296244 VERBOSE:date:0,time:223056.000000,lat:3424.868600degN,lon:11950.571300degW,alt:0.000000,fix:0,sat:0,dil:0.000000
296275 VERBOSE:$GNGGA,223056.000,3424.8686,N,11950.5713,W,1,05,2.3,-307.8,M,-35.6,M,,0000*55
296333 VERBOSE:Calculated checksum: 63 Received Checksum: 25
296344 VERBOSE:date:0,time:0.000000,lat:0.000000deg
296358 VERBOSE:$GNGLL,3424.8686.3,12.2*25
296457 VERBOSE:Calculated checksum: 3D Received Checksum: 63
296468 VERBOSE:date:0,time:0.000000,lat:0.000000deg
296482 VERBOSE:$GNGSA,A,3,87,71223056.000,A,3424.8686,N,11950.5713,W,000.0,267.3,300719,,,A*63
296539 VERBOSE:Calculated checksum: F Received Checksum: 46
296550 VERBOSE:date:0,time:0.000000,lat:0.000000deg
296564 VERBOSE:$GNVTG,267.3,T,,9,00,00*46
297240 VERBOSE:Calculated checksum: 54 Received Checksum: 54
297251 VERBOSE:date:0,time:223057.000000,lat:3424.868600degN,lon:11950.571300degW,alt:0.000000,fix:0,sat:0,dil:0.000000
297283 VERBOSE:$GNGGA,223057.000,3424.8686,N,11950.5713,W,1,05,2.3,-307.8,M,-35.6,M,,0000*54
297340 VERBOSE:Calculated checksum: 62 Received Checksum: 24
297351 VERBOSE:date:0,time:0.000000,lat:0.000000deg
297365 VERBOSE:$GNGLL,3424.8686.3,12.3*24
297464 VERBOSE:Calculated checksum: 3C Received Checksum: 62
297476 VERBOSE:date:0,time:0.000000,lat:0.000000deg
297489 VERBOSE:$GNGSA,A,3,87,71223057.000,A,3424.8686,N,11950.5713,W,000.0,267.3,300719,,,A*62
297546 VERBOSE:Calculated checksum: F Received Checksum: 47
297558 VERBOSE:date:0,time:0.000000,lat:0.000000deg
297571 VERBOSE:$GNVTG,267.3,T,,9,00,00*47
298235 VERBOSE:Calculated checksum: 5B Received Checksum: 5B
298247 VERBOSE:date:0,time:223058.000000,lat:3424.868600degN,lon:11950.571300degW,alt:0.000000,fix:0,sat:0,dil:0.000000
298278 VERBOSE:$GNGGA,223058.000,3424.8686,N,11950.5713,W,1,05,2.3,-307.8,M,-35.6,M,,0000*5B
298335 VERBOSE:Calculated checksum: 62 Received Checksum: 24
298347 VERBOSE:date:0,time:0.000000,lat:0.000000deg
298360 VERBOSE:$GNGLL,3424.8686.3,12.3*24
298455 VERBOSE:Calculated checksum: 21 Received Checksum: 7F
298467 VERBOSE:date:0,time:0.000000,lat:0.000000deg
298480 VERBOSE:$GNGSA,A,3,87,712,1,07,21,61,337,25,29,51,137,31,15,45,093,31,10,33,233,*7F
298585 VERBOSE:Calculated checksum: 43 Received Checksum: 69
298597 VERBOSE:date:0,time:0.000000,lat:0.000000deg
298611 VERBOSE:$GPGSV,2,2,07,131,09,72,72,169,,86,54,078,30,71,47,038,28,87,41,337,30*69
298680 VERBOSE:Calculated checksum: 51 Received Checksum: 51
298692 VERBOSE:date:0,time:0.000000,lat:0.000000deg
298706 VERBOSE:$GLGSV,3,2,09,85SV,3,3,09,70,00,028,*51
298755 VERBOSE:Calculated checksum: 38 Received Checksum: 6D
298767 VERBOSE:date:0,time:0.000000,lat:0.000000deg
298781 VERBOSE:$GNRMC,223058.00300719,,,A*6D
298838 VERBOSE:Calculated checksum: 14 Received Checksum: 48
298849 VERBOSE:date:0,time:0.000000,lat:0.000000deg
298863 VERBOSE:$GNVTG,267.3,T,,00,30,07,2019,00,00*48
299235 VERBOSE:Calculated checksum: 5A Received Checksum: 5A
299247 VERBOSE:date:0,time:223059.000000,lat:3424.868600degN,lon:11950.571300degW,alt:0.000000,fix:0,sat:0,dil:0.000000
299278 VERBOSE:$GNGGA,223059.000,3424.8686,N,11950.5713,W,1,05,2.3,-307.8,M,-35.6,M,,0000*5A
299335 VERBOSE:Calculated checksum: 62 Received Checksum: 24
299347 VERBOSE:date:0,time:0.000000,lat:0.000000deg
299360 VERBOSE:$GNGLL,3424.8686.3,12.3*24
299459 VERBOSE:Calculated checksum: 32 Received Checksum: 6C
299471 VERBOSE:date:0,time:0.000000,lat:0.000000deg
299484 VERBOSE:$GNGSA,A,3,87,71223059.000,A,3424.8686,N,11950.5713,W,000.0,267.3,300719,,,A*6C
299541 VERBOSE:Calculated checksum: F Received Checksum: 49
299553 VERBOSE:date:0,time:0.000000,lat:0.000000deg
299567 VERBOSE:$GNVTG,267.3,T,,9,00,00*49
300234 VERBOSE:Calculated checksum: 57 Received Checksum: 57
300246 VERBOSE:date:0,time:223100.000000,lat:3424.868600degN,lon:11950.571300degW,alt:0.000000,fix:0,sat:0,dil:0.000000
300277 VERBOSE:$GNGGA,223100.000,3424.8686,N,11950.5713,W,1,05,2.3,-307.8,M,-35.6,M,,0000*57
300335 VERBOSE:Calculated checksum: 62 Received Checksum: 24
300346 VERBOSE:date:0,time:0.000000,lat:0.000000deg
300360 VERBOSE:$GNGLL,3424.8686.3,12.3*24
300459 VERBOSE:Calculated checksum: 3F Received Checksum: 61
300470 VERBOSE:date:0,time:0.000000,lat:0.000000deg
300484 VERBOSE:$GNGSA,A,3,87,71223100.000,A,3424.8686,N,11950.5713,W,000.0,267.3,300719,,,A*61
300541 VERBOSE:Calculated checksum: F Received Checksum: 44
300552 VERBOSE:date:0,time:0.000000,lat:0.000000deg
300566 VERBOSE:$GNVTG,267.3,T,,9,00,00*44
301232 VERBOSE:Calculated checksum: 56 Received Checksum: 56
301244 VERBOSE:date:0,time:223101.000000,lat:3424.868600degN,lon:11950.571300degW,alt:0.000000,fix:0,sat:0,dil:0.000000
301275 VERBOSE:$GNGGA,223101.000,3424.8686,N,11950.5713,W,1,05,2.3,-307.8,M,-35.6,M,,0000*56
301332 VERBOSE:Calculated checksum: 62 Received Checksum: 24
301344 VERBOSE:date:0,time:0.000000,lat:0.000000deg
301357 VERBOSE:$GNGLL,3424.8686.3,12.3*24
301452 VERBOSE:Calculated checksum: 20 Received Checksum: 7E
301464 VERBOSE:date:0,time:0.000000,lat:0.000000deg
301477 VERBOSE:$GNGSA,A,3,87,712,1,07,21,61,337,26,29,51,137,31,15,45,092,32,10,33,233,*7E
301582 VERBOSE:Calculated checksum: 43 Received Checksum: 69
301594 VERBOSE:date:0,time:0.000000,lat:0.000000deg
301608 VERBOSE:$GPGSV,2,2,07,131,09,72,72,169,,86,54,078,30,71,47,038,29,87,41,337,31*69
301677 VERBOSE:Calculated checksum: 51 Received Checksum: 51
301689 VERBOSE:date:0,time:0.000000,lat:0.000000deg
301703 VERBOSE:$GLGSV,3,2,09,85SV,3,3,09,70,00,028,*51
301752 VERBOSE:Calculated checksum: 35 Received Checksum: 60
301764 VERBOSE:date:0,time:0.000000,lat:0.000000deg
301778 VERBOSE:$GNRMC,223101.00300719,,,A*60
301835 VERBOSE:Calculated checksum: 14 Received Checksum: 45
301846 VERBOSE:date:0,time:0.000000,lat:0.000000deg
301860 VERBOSE:$GNVTG,267.3,T,,00,30,07,2019,00,00*45
302241 VERBOSE:Calculated checksum: 55 Received Checksum: 55
302253 VERBOSE:date:0,time:223102.000000,lat:3424.868600degN,lon:11950.571300degW,alt:0.000000,fix:0,sat:0,dil:0.000000
302284 VERBOSE:$GNGGA,223102.000,3424.8686,N,11950.5713,W,1,05,2.3,-307.8,M,-35.6,M,,0000*55
302341 VERBOSE:Calculated checksum: 62 Received Checksum: 24
302353 VERBOSE:date:0,time:0.000000,lat:0.000000deg
302366 VERBOSE:$GNGLL,3424.8686.3,12.3*24
302465 VERBOSE:Calculated checksum: 3D Received Checksum: 63
302477 VERBOSE:date:0,time:0.000000,lat:0.000000deg
302490 VERBOSE:$GNGSA,A,3,87,71223102.000,A,3424.8686,N,11950.5713,W,000.0,267.3,300719,,,A*63
302547 VERBOSE:Calculated checksum: F Received Checksum: 46
302559 VERBOSE:date:0,time:0.000000,lat:0.000000deg
302572 VERBOSE:$GNVTG,267.3,T,,9,00,00*46
303234 VERBOSE:Calculated checksum: 54 Received Checksum: 54
303246 VERBOSE:date:0,time:223103.000000,lat:3424.868600degN,lon:11950.571300degW,alt:0.000000,fix:0,sat:0,dil:0.000000
303277 VERBOSE:$GNGGA,223103.000,3424.8686,N,11950.5713,W,1,05,2.3,-307.8,M,-35.6,M,,0000*54
303334 VERBOSE:Calculated checksum: 62 Received Checksum: 24
303345 VERBOSE:date:0,time:0.000000,lat:0.000000deg
303359 VERBOSE:$GNGLL,3424.8686.3,12.3*24
303458 VERBOSE:Calculated checksum: 3C Received Checksum: 62
303470 VERBOSE:date:0,time:0.000000,lat:0.000000deg
303483 VERBOSE:$GNGSA,A,3,87,71223103.000,A,3424.8686,N,11950.5713,W,000.0,267.3,300719,,,A*62
303540 VERBOSE:Calculated checksum: F Received Checksum: 47
303552 VERBOSE:date:0,time:0.000000,lat:0.000000deg
303565 VERBOSE:$GNVTG,267.3,T,,9,00,00*47
304239 VERBOSE:Calculated checksum: 53 Received Checksum: 53
304250 VERBOSE:date:0,time:223104.000000,lat:3424.868600degN,lon:11950.571300degW,alt:0.000000,fix:0,sat:0,dil:0.000000
304282 VERBOSE:$GNGGA,223104.000,3424.8686,N,11950.5713,W,1,05,2.3,-307.8,M,-35.6,M,,0000*53
304339 VERBOSE:Calculated checksum: 62 Received Checksum: 24
304350 VERBOSE:date:0,time:0.000000,lat:0.000000deg
304364 VERBOSE:$GNGLL,3424.8686.3,12.3*24
304461 VERBOSE:Calculated checksum: 27 Received Checksum: 79
304472 VERBOSE:date:0,time:0.000000,lat:0.000000deg
304486 VERBOSE:$GNGSA,A,3,87,712,1,07,21,61,337,25,29,51,138,30,15,45,092,31,10,33,233,09*79
304591 VERBOSE:Calculated checksum: 73 Received Checksum: 68
304603 VERBOSE:date:0,time:0.000000,lat:0.000000deg
304616 VERBOSE:$GPGSV,2,2,07,13,09,72,72,169,,86,54,078,31,71,47,038,29,87,41,337,31*68
304686 VERBOSE:Calculated checksum: 16 Received Checksum: 51
304697 VERBOSE:date:0,time:0.000000,lat:0.000000deg
304711 VERBOSE:$GLGSV,3,2,09,85GSV,3,3,09,70,00,028,*51
304761 VERBOSE:Calculated checksum: 30 Received Checksum: 65
304773 VERBOSE:date:0,time:0.000000,lat:0.000000deg
304786 VERBOSE:$GNRMC,223104.00300719,,,A*65
304843 VERBOSE:Calculated checksum: 14 Received Checksum: 40
304855 VERBOSE:date:0,time:0.000000,lat:0.000000deg
304869 VERBOSE:$GNVTG,267.3,T,,00,30,07,2019,00,00*40
305239 VERBOSE:Calculated checksum: 52 Received Checksum: 52
305250 VERBOSE:date:0,time:223105.000000,lat:3424.868600degN,lon:11950.571300degW,alt:0.000000,fix:0,sat:0,dil:0.000000
305282 VERBOSE:$GNGGA,223105.000,3424.8686,N,11950.5713,W,1,05,2.3,-307.8,M,-35.6,M,,0000*52
305339 VERBOSE:Calculated checksum: 62 Received Checksum: 27
305350 VERBOSE:date:0,time:0.000000,lat:0.000000deg
305364 VERBOSE:$GNGLL,3424.8686.3,12.3*27
305463 VERBOSE:Calculated checksum: 3A Received Checksum: 64
305474 VERBOSE:date:0,time:0.000000,lat:0.000000deg
305488 VERBOSE:$GNGSA,A,3,87,71223105.000,A,3424.8686,N,11950.5713,W,000.0,267.3,300719,,,A*64
305545 VERBOSE:Calculated checksum: F Received Checksum: 41
305557 VERBOSE:date:0,time:0.000000,lat:0.000000deg
305570 VERBOSE:$GNVTG,267.3,T,,9,00,00*41
306239 VERBOSE:Calculated checksum: 51 Received Checksum: 51
306250 VERBOSE:date:0,time:223106.000000,lat:3424.868600degN,lon:11950.571300degW,alt:0.000000,fix:0,sat:0,dil:0.000000
306282 VERBOSE:$GNGGA,223106.000,3424.8686,N,11950.5713,W,1,05,2.3,-307.8,M,-35.6,M,,0000*51
306339 VERBOSE:Calculated checksum: 62 Received Checksum: 27
306350 VERBOSE:date:0,time:0.000000,lat:0.000000deg
306364 VERBOSE:$GNGLL,3424.8686.3,12.3*27
306463 VERBOSE:Calculated checksum: 39 Received Checksum: 67
306475 VERBOSE:date:0,time:0.000000,lat:0.000000deg
306488 VERBOSE:$GNGSA,A,3,87,71223106.000,A,3424.8686,N,11950.5713,W,000.0,267.3,300719,,,A*67
306545 VERBOSE:Calculated checksum: F Received Checksum: 42
306557 VERBOSE:date:0,time:0.000000,lat:0.000000deg
306570 VERBOSE:$GNVTG,267.3,T,,9,00,00*42
307232 VERBOSE:Calculated checksum: 50 Received Checksum: 50
307244 VERBOSE:date:0,time:223107.000000,lat:3424.868600degN,lon:11950.571300degW,alt:0.000000,fix:0,sat:0,dil:0.000000
307275 VERBOSE:$GNGGA,223107.000,3424.8686,N,11950.5713,W,1,05,2.3,-307.8,M,-35.6,M,,0000*50
307332 VERBOSE:Calculated checksum: 65 Received Checksum: 20
307344 VERBOSE:date:0,time:0.000000,lat:0.000000deg
307357 VERBOSE:$GNGLL,3424.8686.3,12.4*20
307454 VERBOSE:Calculated checksum: 28 Received Checksum: 76
307466 VERBOSE:date:0,time:0.000000,lat:0.000000deg
307479 VERBOSE:$GNGSA,A,3,87,712,1,07,21,61,337,25,29,51,138,31,15,45,092,32,10,33,233,04*76
307584 VERBOSE:Calculated checksum: 72 Received Checksum: 68
307596 VERBOSE:date:0,time:0.000000,lat:0.000000deg
307610 VERBOSE:$GPGSV,2,2,07,13,08,72,72,169,,86,54,078,30,71,47,038,28,87,41,337,31*68
307724 VERBOSE:Calculated checksum: 23 Received Checksum: 66
307736 VERBOSE:date:0,time:0.000000,lat:0.000000deg
307749 VERBOSE:$GLGSV,2,2,08,85RMC,223107.000,A,3424.8686,N,11950.5713,W,000.0,267.3,300719,,,A*66
307807 VERBOSE:Calculated checksum: 36 Received Checksum: 43
307818 VERBOSE:date:0,time:0.000000,lat:0.000000deg
307832 VERBOSE:$GNVTG,267.3,T,,,00,00*43
308246 VERBOSE:Calculated checksum: 5F Received Checksum: 5F
308258 VERBOSE:date:0,time:223108.000000,lat:3424.868600degN,lon:11950.571300degW,alt:0.000000,fix:0,sat:0,dil:0.000000
308289 VERBOSE:$GNGGA,223108.000,3424.8686,N,11950.5713,W,1,05,2.3,-307.8,M,-35.6,M,,0000*5F
308346 VERBOSE:Calculated checksum: 65 Received Checksum: 20
308357 VERBOSE:date:0,time:0.000000,lat:0.000000deg
308371 VERBOSE:$GNGLL,3424.8686.3,12.4*20
308470 VERBOSE:Calculated checksum: 37 Received Checksum: 69
308482 VERBOSE:date:0,time:0.000000,lat:0.000000deg
308495 VERBOSE:$GNGSA,A,3,87,71223108.000,A,3424.8686,N,11950.5713,W,000.0,267.3,300719,,,A*69
308552 VERBOSE:Calculated checksum: F Received Checksum: 4C
308564 VERBOSE:date:0,time:0.000000,lat:0.000000deg
308577 VERBOSE:$GNVTG,267.3,T,,9,00,00*4C
309245 VERBOSE:Calculated checksum: 5E Received Checksum: 5E
309257 VERBOSE:date:0,time:223109.000000,lat:3424.868600degN,lon:11950.571300degW,alt:0.000000,fix:0,sat:0,dil:0.000000
309288 VERBOSE:$GNGGA,223109.000,3424.8686,N,11950.5713,W,1,05,2.3,-307.8,M,-35.6,M,,0000*5E
309345 VERBOSE:Calculated checksum: 65 Received Checksum: 20
309357 VERBOSE:date:0,time:0.000000,lat:0.000000deg
309370 VERBOSE:$GNGLL,3424.8686.3,12.4*20
309469 VERBOSE:Calculated checksum: 36 Received Checksum: 68
309481 VERBOSE:date:0,time:0.000000,lat:0.000000deg
309494 VERBOSE:$GNGSA,A,3,87,71223109.000,A,3424.8686,N,11950.5713,W,000.0,267.3,300719,,,A*68
309551 VERBOSE:Calculated checksum: F Received Checksum: 4D
309563 VERBOSE:date:0,time:0.000000,lat:0.000000deg
309576 VERBOSE:$GNVTG,267.3,T,,9,00,00*4D
310250 VERBOSE:Calculated checksum: 5C Received Checksum: 5C
310261 VERBOSE:date:0,time:223110.000000,lat:3424.868500degN,lon:11950.571700degW,alt:0.000000,fix:0,sat:0,dil:0.000000
310293 VERBOSE:$GNGGA,223110.000,3424.8685,N,11950.5717,W,1,05,2.3,-307.5,M,-35.6,M,,0000*5C
310350 VERBOSE:Calculated checksum: 66 Received Checksum: 20
310361 VERBOSE:date:0,time:0.000000,lat:0.000000deg
310375 VERBOSE:$GNGLL,3424.8685.3,12.4*20
310472 VERBOSE:Calculated checksum: 2A Received Checksum: 74
310483 VERBOSE:date:0,time:0.000000,lat:0.000000deg
310497 VERBOSE:$GNGSA,A,3,87,712,1,07,21,61,337,24,29,51,138,31,15,45,092,32,10,33,233,07*74
310602 VERBOSE:Calculated checksum: 73 Received Checksum: 69
310613 VERBOSE:date:0,time:0.000000,lat:0.000000deg
310627 VERBOSE:$GPGSV,2,2,07,13,08,72,73,169,,86,54,078,30,71,47,038,28,87,41,337,31*69
310742 VERBOSE:Calculated checksum: 22 Received Checksum: 67
310753 VERBOSE:date:0,time:0.000000,lat:0.000000deg
310767 VERBOSE:$GLGSV,2,2,08,85RMC,223110.000,A,3424.8685,N,11950.5717,W,000.0,267.3,300719,,,A*67
310824 VERBOSE:Calculated checksum: 36 Received Checksum: 45
310836 VERBOSE:date:0,time:0.000000,lat:0.000000deg
310849 VERBOSE:$GNVTG,267.3,T,,,00,00*45
311266 VERBOSE:Calculated checksum: 5D Received Checksum: 5D
311277 VERBOSE:date:0,time:223111.000000,lat:3424.868500degN,lon:11950.571700degW,alt:0.000000,fix:0,sat:0,dil:0.000000
311309 VERBOSE:$GNGGA,223111.000,3424.8685,N,11950.5717,W,1,05,2.3,-307.5,M,-35.6,M,,0000*5D
311366 VERBOSE:Calculated checksum: 66 Received Checksum: 20
311377 VERBOSE:date:0,time:0.000000,lat:0.000000deg
311391 VERBOSE:$GNGLL,3424.8685.3,12.4*20
311490 VERBOSE:Calculated checksum: 38 Received Checksum: 66
311501 VERBOSE:date:0,time:0.000000,lat:0.000000deg
311515 VERBOSE:$GNGSA,A,3,87,71223111.000,A,3424.8685,N,11950.5717,W,000.0,267.3,300719,,,A*66
311572 VERBOSE:Calculated checksum: F Received Checksum: 44
311583 VERBOSE:date:0,time:0.000000,lat:0.000000deg
311597 VERBOSE:$GNVTG,267.3,T,,9,00,00*44
312244 VERBOSE:Calculated checksum: 5E Received Checksum: 5E
312256 VERBOSE:date:0,time:223112.000000,lat:3424.868500degN,lon:11950.571700degW,alt:0.000000,fix:0,sat:0,dil:0.000000
312287 VERBOSE:$GNGGA,223112.000,3424.8685,N,11950.5717,W,1,05,2.3,-307.5,M,-35.6,M,,0000*5E
312345 VERBOSE:Calculated checksum: 66 Received Checksum: 20
312356 VERBOSE:date:0,time:0.000000,lat:0.000000deg
312370 VERBOSE:$GNGLL,3424.8685.3,12.4*20
312469 VERBOSE:Calculated checksum: 3B Received Checksum: 65
312480 VERBOSE:date:0,time:0.000000,lat:0.000000deg
312494 VERBOSE:$GNGSA,A,3,87,71223112.000,A,3424.8685,N,11950.5717,W,000.0,267.3,300719,,,A*65
312551 VERBOSE:Calculated checksum: F Received Checksum: 47
312562 VERBOSE:date:0,time:0.000000,lat:0.000000deg
312576 VERBOSE:$GNVTG,267.3,T,,9,00,00*47
313243 VERBOSE:Calculated checksum: 5F Received Checksum: 5F
313254 VERBOSE:date:0,time:223113.000000,lat:3424.868500degN,lon:11950.571700degW,alt:0.000000,fix:0,sat:0,dil:0.000000
313286 VERBOSE:$GNGGA,223113.000,3424.8685,N,11950.5717,W,1,05,2.3,-307.5,M,-35.6,M,,0000*5F
313343 VERBOSE:Calculated checksum: 66 Received Checksum: 20
313354 VERBOSE:date:0,time:0.000000,lat:0.000000deg
313368 VERBOSE:$GNGLL,3424.8685.3,12.4*20
313465 VERBOSE:Calculated checksum: 24 Received Checksum: 7A
313476 VERBOSE:date:0,time:0.000000,lat:0.000000deg
313490 VERBOSE:$GNGSA,A,3,87,712,1,07,21,61,337,24,29,51,138,31,15,45,092,32,10,33,233,09*7A
313595 VERBOSE:Calculated checksum: 73 Received Checksum: 69
313607 VERBOSE:date:0,time:0.000000,lat:0.000000deg
313620 VERBOSE:$GPGSV,2,2,07,13,08,72,73,169,,86,54,078,30,71,47,038,28,87,41,337,31*69
313735 VERBOSE:Calculated checksum: 21 Received Checksum: 64
313746 VERBOSE:date:0,time:0.000000,lat:0.000000deg
313760 VERBOSE:$GLGSV,2,2,08,85RMC,223113.000,A,3424.8685,N,11950.5717,W,000.0,267.3,300719,,,A*64
313817 VERBOSE:Calculated checksum: 36 Received Checksum: 46
313829 VERBOSE:date:0,time:0.000000,lat:0.000000deg
313843 VERBOSE:$GNVTG,267.3,T,,,00,00*46
314257 VERBOSE:Calculated checksum: 58 Received Checksum: 58
314268 VERBOSE:date:0,time:223114.000000,lat:3424.868500degN,lon:11950.571700degW,alt:0.000000,fix:0,sat:0,dil:0.000000
314300 VERBOSE:$GNGGA,223114.000,3424.8685,N,11950.5717,W,1,05,2.3,-307.5,M,-35.6,M,,0000*58
314357 VERBOSE:Calculated checksum: 66 Received Checksum: 20
314368 VERBOSE:date:0,time:0.000000,lat:0.000000deg
314382 VERBOSE:$GNGLL,3424.8685.3,12.4*20
314481 VERBOSE:Calculated checksum: 3D Received Checksum: 63
314492 VERBOSE:date:0,time:0.000000,lat:0.000000deg
314506 VERBOSE:$GNGSA,A,3,87,71223114.000,A,3424.8685,N,11950.5717,W,000.0,267.3,300719,,,A*63
314563 VERBOSE:Calculated checksum: F Received Checksum: 41
314574 VERBOSE:date:0,time:0.000000,lat:0.000000deg
314588 VERBOSE:$GNVTG,267.3,T,,9,00,00*41
315256 VERBOSE:Calculated checksum: 59 Received Checksum: 59
315267 VERBOSE:date:0,time:223115.000000,lat:3424.868500degN,lon:11950.571700degW,alt:0.000000,fix:0,sat:0,dil:0.000000
315299 VERBOSE:$GNGGA,223115.000,3424.8685,N,11950.5717,W,1,05,2.3,-307.5,M,-35.6,M,,0000*59
315356 VERBOSE:Calculated checksum: 66 Received Checksum: 21
315367 VERBOSE:date:0,time:0.000000,lat:0.000000deg
315381 VERBOSE:$GNGLL,3424.8685.3,12.4*21
315480 VERBOSE:Calculated checksum: 3C Received Checksum: 62
315491 VERBOSE:date:0,time:0.000000,lat:0.000000deg
315505 VERBOSE:$GNGSA,A,3,87,71223115.000,A,3424.8685,N,11950.5717,W,000.0,267.3,300719,,,A*62
315562 VERBOSE:Calculated checksum: F Received Checksum: 40
315573 VERBOSE:date:0,time:0.000000,lat:0.000000deg
315587 VERBOSE:$GNVTG,267.3,T,,9,00,00*40
316250 VERBOSE:Calculated checksum: 5A Received Checksum: 5A
316262 VERBOSE:date:0,time:223116.000000,lat:3424.868500degN,lon:11950.571700degW,alt:0.000000,fix:0,sat:0,dil:0.000000
316293 VERBOSE:$GNGGA,223116.000,3424.8685,N,11950.5717,W,1,05,2.3,-307.5,M,-35.6,M,,0000*5A
316350 VERBOSE:Calculated checksum: 66 Received Checksum: 21
316362 VERBOSE:date:0,time:0.000000,lat:0.000000deg
316376 VERBOSE:$GNGLL,3424.8685.3,12.4*21
316472 VERBOSE:Calculated checksum: 28 Received Checksum: 76
316484 VERBOSE:date:0,time:0.000000,lat:0.000000deg
316498 VERBOSE:$GNGSA,A,3,87,712,1,07,21,61,337,24,29,51,138,31,15,45,092,33,10,33,233,04*76
316603 VERBOSE:Calculated checksum: 72 Received Checksum: 68
316614 VERBOSE:date:0,time:0.000000,lat:0.000000deg
316628 VERBOSE:$GPGSV,2,2,07,13,08,72,73,169,,86,54,078,31,71,47,038,28,87,41,337,31*68
316743 VERBOSE:Calculated checksum: 24 Received Checksum: 61
316754 VERBOSE:date:0,time:0.000000,lat:0.000000deg
316768 VERBOSE:$GLGSV,2,2,08,85RMC,223116.000,A,3424.8685,N,11950.5717,W,000.0,267.3,300719,,,A*61
316825 VERBOSE:Calculated checksum: 36 Received Checksum: 43
316836 VERBOSE:date:0,time:0.000000,lat:0.000000deg
316850 VERBOSE:$GNVTG,267.3,T,,,00,00*43
317252 VERBOSE:Calculated checksum: 5B Received Checksum: 5B
317263 VERBOSE:date:0,time:223117.000000,lat:3424.868500degN,lon:11950.571700degW,alt:0.000000,fix:0,sat:0,dil:0.000000
317295 VERBOSE:$GNGGA,223117.000,3424.8685,N,11950.5717,W,1,05,2.3,-307.5,M,-35.6,M,,0000*5B
317352 VERBOSE:Calculated checksum: 67 Received Checksum: 20
317363 VERBOSE:date:0,time:0.000000,lat:0.000000deg
317377 VERBOSE:$GNGLL,3424.8685.3,12.5*20
317476 VERBOSE:Calculated checksum: 3E Received Checksum: 60
317487 VERBOSE:date:0,time:0.000000,lat:0.000000deg
317501 VERBOSE:$GNGSA,A,3,87,71223117.000,A,3424.8685,N,11950.5717,W,000.0,267.3,300719,,,A*60
317558 VERBOSE:Calculated checksum: F Received Checksum: 42
317570 VERBOSE:date:0,time:0.000000,lat:0.000000deg
317583 VERBOSE:$GNVTG,267.3,T,,9,00,00*42
318249 VERBOSE:Calculated checksum: 54 Received Checksum: 54
318261 VERBOSE:date:0,time:223118.000000,lat:3424.868500degN,lon:11950.571700degW,alt:0.000000,fix:0,sat:0,dil:0.000000
318292 VERBOSE:$GNGGA,223118.000,3424.8685,N,11950.5717,W,1,05,2.3,-307.5,M,-35.6,M,,0000*54
318349 VERBOSE:Calculated checksum: 67 Received Checksum: 20
318360 VERBOSE:date:0,time:0.000000,lat:0.000000deg
318374 VERBOSE:$GNGLL,3424.8685.3,12.5*20
318473 VERBOSE:Calculated checksum: 31 Received Checksum: 6F
318485 VERBOSE:date:0,time:0.000000,lat:0.000000deg
318498 VERBOSE:$GNGSA,A,3,87,71223118.000,A,3424.8685,N,11950.5717,W,000.0,267.3,300719,,,A*6F
318555 VERBOSE:Calculated checksum: F Received Checksum: 4D
318567 VERBOSE:date:0,time:0.000000,lat:0.000000deg
318580 VERBOSE:$GNVTG,267.3,T,,9,00,00*4D
319232 VERBOSE:Calculated checksum: 55 Received Checksum: 55
319244 VERBOSE:date:0,time:223119.000000,lat:3424.868500degN,lon:11950.571700degW,alt:0.000000,fix:0,sat:0,dil:0.000000
319275 VERBOSE:$GNGGA,223119.000,3424.8685,N,11950.5717,W,1,05,2.3,-307.5,M,-35.6,M,,0000*55
319332 VERBOSE:Calculated checksum: 67 Received Checksum: 20
319344 VERBOSE:date:0,time:0.000000,lat:0.000000deg
319358 VERBOSE:$GNGLL,3424.8685.3,12.5*20
319454 VERBOSE:Calculated checksum: 26 Received Checksum: 78
319466 VERBOSE:date:0,time:0.000000,lat:0.000000deg
319480 VERBOSE:$GNGSA,A,3,87,712,1,07,21,61,337,24,29,51,138,32,15,45,092,33,10,33,233,09*78
319585 VERBOSE:Calculated checksum: 70 Received Checksum: 6A
319596 VERBOSE:date:0,time:0.000000,lat:0.000000deg
319610 VERBOSE:$GPGSV,2,2,07,13,08,72,73,169,,86,54,078,30,71,47,038,28,87,41,337,32*6A
319725 VERBOSE:Calculated checksum: 2B Received Checksum: 6E
319736 VERBOSE:date:0,time:0.000000,lat:0.000000deg
319750 VERBOSE:$GLGSV,2,2,08,85RMC,223119.000,A,3424.8685,N,11950.5717,W,000.0,267.3,300719,,,A*6E
319807 VERBOSE:Calculated checksum: 36 Received Checksum: 4C
319818 VERBOSE:date:0,time:0.000000,lat:0.000000deg
319832 VERBOSE:$GNVTG,267.3,T,,,00,00*4C
320216 VERBOSE:Calculated checksum: 5F Received Checksum: 5F
320228 VERBOSE:date:0,time:223120.000000,lat:3424.868500degN,lon:11950.571700degW,alt:0.000000,fix:0,sat:0,dil:0.000000
320259 VERBOSE:$GNGGA,223120.000,3424.8685,N,11950.5717,W,1,05,2.3,-307.5,M,-35.6,M,,0000*5F
320316 VERBOSE:Calculated checksum: 67 Received Checksum: 20
320328 VERBOSE:date:0,time:0.000000,lat:0.000000deg
320342 VERBOSE:$GNGLL,3424.8685.3,12.5*20
320441 VERBOSE:Calculated checksum: 3A Received Checksum: 64
320452 VERBOSE:date:0,time:0.000000,lat:0.000000deg
320466 VERBOSE:$GNGSA,A,3,87,71223120.000,A,3424.8685,N,11950.5717,W,000.0,267.3,300719,,,A*64
320523 VERBOSE:Calculated checksum: F Received Checksum: 46
320534 VERBOSE:date:0,time:0.000000,lat:0.000000deg
320548 VERBOSE:$GNVTG,267.3,T,,9,00,00*46
321228 VERBOSE:Calculated checksum: 5E Received Checksum: 5E
321239 VERBOSE:date:0,time:223121.000000,lat:3424.868500degN,lon:11950.571700degW,alt:0.000000,fix:0,sat:0,dil:0.000000
321271 VERBOSE:$GNGGA,223121.000,3424.8685,N,11950.5717,W,1,05,2.3,-307.5,M,-35.6,M,,0000*5E
321328 VERBOSE:Calculated checksum: 67 Received Checksum: 20
321339 VERBOSE:date:0,time:0.000000,lat:0.000000deg
321353 VERBOSE:$GNGLL,3424.8685.3,12.5*20
321452 VERBOSE:Calculated checksum: 3B Received Checksum: 65
321463 VERBOSE:date:0,time:0.000000,lat:0.000000deg
321477 VERBOSE:$GNGSA,A,3,87,71223121.000,A,3424.8685,N,11950.5717,W,000.0,267.3,300719,,,A*65
321534 VERBOSE:Calculated checksum: F Received Checksum: 47
321545 VERBOSE:date:0,time:0.000000,lat:0.000000deg
321559 VERBOSE:$GNVTG,267.3,T,,9,00,00*47
322223 VERBOSE:Calculated checksum: 5D Received Checksum: 5D
322235 VERBOSE:date:0,time:223122.000000,lat:3424.868500degN,lon:11950.571700degW,alt:0.000000,fix:0,sat:0,dil:0.000000
322266 VERBOSE:$GNGGA,223122.000,3424.8685,N,11950.5717,W,1,05,2.3,-307.5,M,-35.6,M,,0000*5D
322323 VERBOSE:Calculated checksum: 67 Received Checksum: 20
322335 VERBOSE:date:0,time:0.000000,lat:0.000000deg
322348 VERBOSE:$GNGLL,3424.8685.3,12.5*20
322445 VERBOSE:Calculated checksum: 2F Received Checksum: 71
322457 VERBOSE:date:0,time:0.000000,lat:0.000000deg
322470 VERBOSE:$GNGSA,A,3,87,712,1,07,21,61,337,23,29,51,138,31,15,45,092,33,10,33,233,04*71
322575 VERBOSE:Calculated checksum: 7D Received Checksum: 67
322587 VERBOSE:date:0,time:0.000000,lat:0.000000deg
322601 VERBOSE:$GPGSV,2,2,07,13,08,72,73,169,,86,54,079,30,71,47,038,27,87,41,337,31*67
322715 VERBOSE:Calculated checksum: 23 Received Checksum: 66
322727 VERBOSE:date:0,time:0.000000,lat:0.000000deg
322740 VERBOSE:$GLGSV,2,2,08,85RMC,223122.000,A,3424.8685,N,11950.5717,W,000.0,267.3,300719,,,A*66
322797 VERBOSE:Calculated checksum: 36 Received Checksum: 44
322809 VERBOSE:date:0,time:0.000000,lat:0.000000deg
322823 VERBOSE:$GNVTG,267.3,T,,,00,00*44
323224 VERBOSE:Calculated checksum: 5C Received Checksum: 5C
323236 VERBOSE:date:0,time:223123.000000,lat:3424.868500degN,lon:11950.571700degW,alt:0.000000,fix:0,sat:0,dil:0.000000
323267 VERBOSE:$GNGGA,223123.000,3424.8685,N,11950.5717,W,1,05,2.3,-307.5,M,-35.6,M,,0000*5C
323324 VERBOSE:Calculated checksum: 67 Received Checksum: 20
323336 VERBOSE:date:0,time:0.000000,lat:0.000000deg
323349 VERBOSE:$GNGLL,3424.8685.3,12.5*20
323448 VERBOSE:Calculated checksum: 39 Received Checksum: 67
323460 VERBOSE:date:0,time:0.000000,lat:0.000000deg
323473 VERBOSE:$GNGSA,A,3,87,71223123.000,A,3424.8685,N,11950.5717,W,000.0,267.3,300719,,,A*67
323530 VERBOSE:Calculated checksum: F Received Checksum: 45
323542 VERBOSE:date:0,time:0.000000,lat:0.000000deg
323555 VERBOSE:$GNVTG,267.3,T,,9,00,00*45
324223 VERBOSE:Calculated checksum: 5B Received Checksum: 5B
324234 VERBOSE:date:0,time:223124.000000,lat:3424.868500degN,lon:11950.571700degW,alt:0.000000,fix:0,sat:0,dil:0.000000
324266 VERBOSE:$GNGGA,223124.000,3424.8685,N,11950.5717,W,1,05,2.3,-307.5,M,-35.6,M,,0000*5B
324323 VERBOSE:Calculated checksum: 67 Received Checksum: 20
324334 VERBOSE:date:0,time:0.000000,lat:0.000000deg
324348 VERBOSE:$GNGLL,3424.8685.3,12.5*20
324447 VERBOSE:Calculated checksum: 3E Received Checksum: 60
324458 VERBOSE:date:0,time:0.000000,lat:0.000000deg
324472 VERBOSE:$GNGSA,A,3,87,71223124.000,A,3424.8685,N,11950.5717,W,000.0,267.3,300719,,,A*60
324529 VERBOSE:Calculated checksum: F Received Checksum: 42
324541 VERBOSE:date:0,time:0.000000,lat:0.000000deg
324554 VERBOSE:$GNVTG,267.3,T,,9,00,00*42
325219 VERBOSE:Calculated checksum: 5A Received Checksum: 5A
325230 VERBOSE:date:0,time:223125.000000,lat:3424.868500degN,lon:11950.571700degW,alt:0.000000,fix:0,sat:0,dil:0.000000
325262 VERBOSE:$GNGGA,223125.000,3424.8685,N,11950.5717,W,1,05,2.3,-307.5,M,-35.6,M,,0000*5A
325319 VERBOSE:Calculated checksum: 67 Received Checksum: 2F
325330 VERBOSE:date:0,time:0.000000,lat:0.000000deg
325344 VERBOSE:$GNGLL,3424.8685.3,12.5*2F
325441 VERBOSE:Calculated checksum: 2B Received Checksum: 75
325452 VERBOSE:date:0,time:0.000000,lat:0.000000deg
325466 VERBOSE:$GNGSA,A,3,87,712,1,07,21,61,337,22,29,51,138,31,15,45,092,33,10,33,233,01*75
325571 VERBOSE:Calculated checksum: 7F Received Checksum: 65
325583 VERBOSE:date:0,time:0.000000,lat:0.000000deg
325596 VERBOSE:$GPGSV,2,2,07,13,08,72,73,169,,86,54,079,30,71,47,038,26,87,42,337,31*65
325711 VERBOSE:Calculated checksum: 24 Received Checksum: 61
325722 VERBOSE:date:0,time:0.000000,lat:0.000000deg
325736 VERBOSE:$GLGSV,2,2,08,85RMC,223125.000,A,3424.8685,N,11950.5717,W,000.0,267.3,300719,,,A*61
325793 VERBOSE:Calculated checksum: 36 Received Checksum: 43
325805 VERBOSE:date:0,time:0.000000,lat:0.000000deg
325819 VERBOSE:$GNVTG,267.3,T,,,00,00*43
326212 VERBOSE:Calculated checksum: 59 Received Checksum: 59
326224 VERBOSE:date:0,time:223126.000000,lat:3424.868500degN,lon:11950.571700degW,alt:0.000000,fix:0,sat:0,dil:0.000000
326255 VERBOSE:$GNGGA,223126.000,3424.8685,N,11950.5717,W,1,05,2.3,-307.5,M,-35.6,M,,0000*59
326312 VERBOSE:Calculated checksum: 67 Received Checksum: 2F
326323 VERBOSE:date:0,time:0.000000,lat:0.000000deg
326337 VERBOSE:$GNGLL,3424.8685.3,12.5*2F
326436 VERBOSE:Calculated checksum: 3C Received Checksum: 62
326448 VERBOSE:date:0,time:0.000000,lat:0.000000deg
326461 VERBOSE:$GNGSA,A,3,87,71223126.000,A,3424.8685,N,11950.5717,W,000.0,267.3,300719,,,A*62
326518 VERBOSE:Calculated checksum: F Received Checksum: 40
326530 VERBOSE:date:0,time:0.000000,lat:0.000000deg
326543 VERBOSE:$GNVTG,267.3,T,,9,00,00*40
327220 VERBOSE:Calculated checksum: 58 Received Checksum: 58
327231 VERBOSE:date:0,time:223127.000000,lat:3424.868500degN,lon:11950.571700degW,alt:0.000000,fix:0,sat:0,dil:0.000000
327263 VERBOSE:$GNGGA,223127.000,3424.8685,N,11950.5717,W,1,05,2.3,-307.5,M,-35.6,M,,0000*58
327320 VERBOSE:Calculated checksum: 64 Received Checksum: 2C
327331 VERBOSE:date:0,time:0.000000,lat:0.000000deg
327345 VERBOSE:$GNGLL,3424.8685.3,12.6*2C
327444 VERBOSE:Calculated checksum: 3D Received Checksum: 63
327455 VERBOSE:date:0,time:0.000000,lat:0.000000deg
327469 VERBOSE:$GNGSA,A,3,87,71223127.000,A,3424.8685,N,11950.5717,W,000.0,267.3,300719,,,A*63
327526 VERBOSE:Calculated checksum: F Received Checksum: 41
327537 VERBOSE:date:0,time:0.000000,lat:0.000000deg
327551 VERBOSE:$GNVTG,267.3,T,,9,00,00*41
328230 VERBOSE:Calculated checksum: 57 Received Checksum: 57
328242 VERBOSE:date:0,time:223128.000000,lat:3424.868500degN,lon:11950.571700degW,alt:0.000000,fix:0,sat:0,dil:0.000000
328273 VERBOSE:$GNGGA,223128.000,3424.8685,N,11950.5717,W,1,05,2.3,-307.5,M,-35.6,M,,0000*57
328330 VERBOSE:Calculated checksum: 64 Received Checksum: 2C
328341 VERBOSE:date:0,time:0.000000,lat:0.000000deg
328355 VERBOSE:$GNGLL,3424.8685.3,12.6*2C
328450 VERBOSE:Calculated checksum: 29 Received Checksum: 77
328461 VERBOSE:date:0,time:0.000000,lat:0.000000deg
328475 VERBOSE:$GNGSA,A,3,87,712,1,07,21,61,337,22,29,51,138,32,15,45,092,33,10,33,233,*77
328580 VERBOSE:Calculated checksum: 4E Received Checksum: 65
328592 VERBOSE:date:0,time:0.000000,lat:0.000000deg
328605 VERBOSE:$GPGSV,2,2,07,131,08,72,73,169,,86,54,079,31,71,47,038,27,87,42,337,31*65
328720 VERBOSE:Calculated checksum: 7B Received Checksum: 6C
328731 VERBOSE:date:0,time:0.000000,lat:0.000000deg
328745 VERBOSE:$GLGSV,2,2,08,85MC,223128.000,A,3424.8685,N,11950.5717,W,000.0,267.3,300719,,,A*6C
328802 VERBOSE:Calculated checksum: 36 Received Checksum: 4E
328814 VERBOSE:date:0,time:0.000000,lat:0.000000deg
328828 VERBOSE:$GNVTG,267.3,T,,,00,00*4E
329214 VERBOSE:Calculated checksum: 56 Received Checksum: 56
329226 VERBOSE:date:0,time:223129.000000,lat:3424.868500degN,lon:11950.571700degW,alt:0.000000,fix:0,sat:0,dil:0.000000
329257 VERBOSE:$GNGGA,223129.000,3424.8685,N,11950.5717,W,1,05,2.3,-307.5,M,-35.6,M,,0000*56
329315 VERBOSE:Calculated checksum: 64 Received Checksum: 2C
329326 VERBOSE:date:0,time:0.000000,lat:0.000000deg
329340 VERBOSE:$GNGLL,3424.8685.3,12.6*2C
329439 VERBOSE:Calculated checksum: 33 Received Checksum: 6D
329450 VERBOSE:date:0,time:0.000000,lat:0.000000deg
329464 VERBOSE:$GNGSA,A,3,87,71223129.000,A,3424.8685,N,11950.5717,W,000.0,267.3,300719,,,A*6D
329521 VERBOSE:Calculated checksum: F Received Checksum: 4F
329532 VERBOSE:date:0,time:0.000000,lat:0.000000deg
329546 VERBOSE:$GNVTG,267.3,T,,9,00,00*4F
330219 VERBOSE:Calculated checksum: 5E Received Checksum: 5E
330230 VERBOSE:date:0,time:223130.000000,lat:3424.868500degN,lon:11950.571700degW,alt:0.000000,fix:0,sat:0,dil:0.000000
330262 VERBOSE:$GNGGA,223130.000,3424.8685,N,11950.5717,W,1,05,2.3,-307.5,M,-35.6,M,,0000*5E
330319 VERBOSE:Calculated checksum: 64 Received Checksum: 2C
330330 VERBOSE:date:0,time:0.000000,lat:0.000000deg
330344 VERBOSE:$GNGLL,3424.8685.3,12.6*2C
330443 VERBOSE:Calculated checksum: 3B Received Checksum: 65
330454 VERBOSE:date:0,time:0.000000,lat:0.000000deg
330468 VERBOSE:$GNGSA,A,3,87,71223130.000,A,3424.8685,N,11950.5717,W,000.0,267.3,300719,,,A*65
330525 VERBOSE:Calculated checksum: F Received Checksum: 47
330536 VERBOSE:date:0,time:0.000000,lat:0.000000deg
330550 VERBOSE:$GNVTG,267.3,T,,9,00,00*47
331213 VERBOSE:Calculated checksum: 5F Received Checksum: 5F
331225 VERBOSE:date:0,time:223131.000000,lat:3424.868500degN,lon:11950.571700degW,alt:0.000000,fix:0,sat:0,dil:0.000000
331256 VERBOSE:$GNGGA,223131.000,3424.8685,N,11950.5717,W,1,05,2.3,-307.5,M,-35.6,M,,0000*5F
331314 VERBOSE:Calculated checksum: 64 Received Checksum: 2C
331325 VERBOSE:date:0,time:0.000000,lat:0.000000deg
331339 VERBOSE:$GNGLL,3424.8685.3,12.6*2C
331433 VERBOSE:Calculated checksum: 2B Received Checksum: 75
331445 VERBOSE:date:0,time:0.000000,lat:0.000000deg
331459 VERBOSE:$GNGSA,A,3,87,712,1,07,21,61,337,22,29,51,138,31,15,45,092,32,10,33,233,*75
331564 VERBOSE:Calculated checksum: 4F Received Checksum: 64
331575 VERBOSE:date:0,time:0.000000,lat:0.000000deg
331589 VERBOSE:$GPGSV,2,2,07,131,08,72,73,169,,86,54,079,31,71,47,038,27,87,42,337,30*64
331704 VERBOSE:Calculated checksum: 73 Received Checksum: 64
331715 VERBOSE:date:0,time:0.000000,lat:0.000000deg
331729 VERBOSE:$GLGSV,2,2,08,85MC,223131.000,A,3424.8685,N,11950.5717,W,000.0,267.3,300719,,,A*64
331786 VERBOSE:Calculated checksum: 36 Received Checksum: 46
331797 VERBOSE:date:0,time:0.000000,lat:0.000000deg
331811 VERBOSE:$GNVTG,267.3,T,,,00,00*46
332215 VERBOSE:Calculated checksum: 5C Received Checksum: 5C
332226 VERBOSE:date:0,time:223132.000000,lat:3424.868500degN,lon:11950.571700degW,alt:0.000000,fix:0,sat:0,dil:0.000000
332258 VERBOSE:$GNGGA,223132.000,3424.8685,N,11950.5717,W,1,05,2.3,-307.5,M,-35.6,M,,0000*5C
332315 VERBOSE:Calculated checksum: 64 Received Checksum: 2C
332326 VERBOSE:date:0,time:0.000000,lat:0.000000deg
332340 VERBOSE:$GNGLL,3424.8685.3,12.6*2C
332439 VERBOSE:Calculated checksum: 39 Received Checksum: 67
332450 VERBOSE:date:0,time:0.000000,lat:0.000000deg
332464 VERBOSE:$GNGSA,A,3,87,71223132.000,A,3424.8685,N,11950.5717,W,000.0,267.3,300719,,,A*67
332521 VERBOSE:Calculated checksum: F Received Checksum: 45
332532 VERBOSE:date:0,time:0.000000,lat:0.000000deg
332546 VERBOSE:$GNVTG,267.3,T,,9,00,00*45
333215 VERBOSE:Calculated checksum: 5D Received Checksum: 5D
333226 VERBOSE:date:0,time:223133.000000,lat:3424.868500degN,lon:11950.571700degW,alt:0.000000,fix:0,sat:0,dil:0.000000
333258 VERBOSE:$GNGGA,223133.000,3424.8685,N,11950.5717,W,1,05,2.3,-307.5,M,-35.6,M,,0000*5D
333315 VERBOSE:Calculated checksum: 64 Received Checksum: 2C
333326 VERBOSE:date:0,time:0.000000,lat:0.000000deg
333340 VERBOSE:$GNGLL,3424.8685.3,12.6*2C
333439 VERBOSE:Calculated checksum: 38 Received Checksum: 66
333451 VERBOSE:date:0,time:0.000000,lat:0.000000deg
333464 VERBOSE:$GNGSA,A,3,87,71223133.000,A,3424.8685,N,11950.5717,W,000.0,267.3,300719,,,A*66
333521 VERBOSE:Calculated checksum: F Received Checksum: 44
333533 VERBOSE:date:0,time:0.000000,lat:0.000000deg
333546 VERBOSE:$GNVTG,267.3,T,,9,00,00*44
334214 VERBOSE:Calculated checksum: 5A Received Checksum: 5A
334225 VERBOSE:date:0,time:223134.000000,lat:3424.868500degN,lon:11950.571700degW,alt:0.000000,fix:0,sat:0,dil:0.000000
334257 VERBOSE:$GNGGA,223134.000,3424.8685,N,11950.5717,W,1,05,2.3,-307.5,M,-35.6,M,,0000*5A
334314 VERBOSE:Calculated checksum: 64 Received Checksum: 2C
334325 VERBOSE:date:0,time:0.000000,lat:0.000000deg
334339 VERBOSE:$GNGLL,3424.8685.3,12.6*2C
334436 VERBOSE:Calculated checksum: 22 Received Checksum: 7C
334447 VERBOSE:date:0,time:0.000000,lat:0.000000deg
334461 VERBOSE:$GNGSA,A,3,87,712,1,07,21,61,338,22,29,50,138,31,15,45,092,32,10,33,233,07*7C
334566 VERBOSE:Calculated checksum: 70 Received Checksum: 6A
334578 VERBOSE:date:0,time:0.000000,lat:0.000000deg
334591 VERBOSE:$GPGSV,2,2,07,13,08,72,73,169,,86,54,079,31,71,47,038,28,87,42,337,31*6A
334706 VERBOSE:Calculated checksum: 24 Received Checksum: 61
334717 VERBOSE:date:0,time:0.000000,lat:0.000000deg
334731 VERBOSE:$GLGSV,2,2,08,85RMC,223134.000,A,3424.8685,N,11950.5717,W,000.0,267.3,300719,,,A*61
334788 VERBOSE:Calculated checksum: 36 Received Checksum: 43
334800 VERBOSE:date:0,time:0.000000,lat:0.000000deg
334813 VERBOSE:$GNVTG,267.3,T,,,00,00*43
335247 VERBOSE:Calculated checksum: 5B Received Checksum: 5B
335259 VERBOSE:date:0,time:223135.000000,lat:3424.868500degN,lon:11950.571700degW,alt:0.000000,fix:0,sat:0,dil:0.000000
335290 VERBOSE:$GNGGA,223135.000,3424.8685,N,11950.5717,W,1,05,2.3,-307.5,M,-35.6,M,,0000*5B
335347 VERBOSE:Calculated checksum: 64 Received Checksum: 2C
335359 VERBOSE:date:0,time:0.000000,lat:0.000000deg
335373 VERBOSE:$GNGLL,3424.8685.3,12.6*2C
335472 VERBOSE:Calculated checksum: 3E Received Checksum: 60
335483 VERBOSE:date:0,time:0.000000,lat:0.000000deg
335497 VERBOSE:$GNGSA,A,3,87,71223135.000,A,3424.8685,N,11950.5717,W,000.0,267.3,300719,,,A*60
335554 VERBOSE:Calculated checksum: F Received Checksum: 42
335565 VERBOSE:date:0,time:0.000000,lat:0.000000deg
335579 VERBOSE:$GNVTG,267.3,T,,9,00,00*42
336223 VERBOSE:Calculated checksum: 58 Received Checksum: 58
336235 VERBOSE:date:0,time:223136.000000,lat:3424.868500degN,lon:11950.571700degW,alt:0.000000,fix:0,sat:0,dil:0.000000
336266 VERBOSE:$GNGGA,223136.000,3424.8685,N,11950.5717,W,1,05,2.3,-307.5,M,-35.6,M,,0000*58
336323 VERBOSE:Calculated checksum: 64 Received Checksum: 2D
336335 VERBOSE:date:0,time:0.000000,lat:0.000000deg
336349 VERBOSE:$GNGLL,3424.8685.3,12.6*2D
336448 VERBOSE:Calculated checksum: 3D Received Checksum: 63
336459 VERBOSE:date:0,time:0.000000,lat:0.000000deg
336473 VERBOSE:$GNGSA,A,3,87,71223136.000,A,3424.8685,N,11950.5717,W,000.0,267.3,300719,,,A*63
336530 VERBOSE:Calculated checksum: F Received Checksum: 41
336541 VERBOSE:date:0,time:0.000000,lat:0.000000deg
336555 VERBOSE:$GNVTG,267.3,T,,9,00,00*41
337220 VERBOSE:Calculated checksum: 57 Received Checksum: 57
337231 VERBOSE:date:0,time:223137.000000,lat:3424.868400degN,lon:11950.571900degW,alt:0.000000,fix:0,sat:0,dil:0.000000
337263 VERBOSE:$GNGGA,223137.000,3424.8684,N,11950.5719,W,1,05,2.3,-307.4,M,-35.6,M,,0000*57
337320 VERBOSE:Calculated checksum: 64 Received Checksum: 2C
337331 VERBOSE:date:0,time:0.000000,lat:0.000000deg
337345 VERBOSE:$GNGLL,3424.8684.3,12.7*2C
337442 VERBOSE:Calculated checksum: 25 Received Checksum: 7B
337453 VERBOSE:date:0,time:0.000000,lat:0.000000deg
337467 VERBOSE:$GNGSA,A,3,87,712,1,07,21,61,338,21,29,50,138,31,15,45,092,32,10,33,233,03*7B
337572 VERBOSE:Calculated checksum: 7F Received Checksum: 65
337584 VERBOSE:date:0,time:0.000000,lat:0.000000deg
337597 VERBOSE:$GPGSV,2,2,07,13,08,72,73,169,,86,54,079,31,71,47,038,27,87,42,337,31*65
337712 VERBOSE:Calculated checksum: 28 Received Checksum: 6D
337723 VERBOSE:date:0,time:0.000000,lat:0.000000deg
337737 VERBOSE:$GLGSV,2,2,08,85RMC,223137.000,A,3424.8684,N,11950.5719,W,000.0,267.3,300719,,,A*6D
337794 VERBOSE:Calculated checksum: 36 Received Checksum: 40
337806 VERBOSE:date:0,time:0.000000,lat:0.000000deg
337819 VERBOSE:$GNVTG,267.3,T,,,00,00*40
338221 VERBOSE:Calculated checksum: 58 Received Checksum: 58
338232 VERBOSE:date:0,time:223138.000000,lat:3424.868400degN,lon:11950.571900degW,alt:0.000000,fix:0,sat:0,dil:0.000000
338264 VERBOSE:$GNGGA,223138.000,3424.8684,N,11950.5719,W,1,05,2.3,-307.4,M,-35.6,M,,0000*58
338321 VERBOSE:Calculated checksum: 64 Received Checksum: 2C
338332 VERBOSE:date:0,time:0.000000,lat:0.000000deg
338346 VERBOSE:$GNGLL,3424.8684.3,12.7*2C
338445 VERBOSE:Calculated checksum: 3C Received Checksum: 62
338456 VERBOSE:date:0,time:0.000000,lat:0.000000deg
338470 VERBOSE:$GNGSA,A,3,87,71223138.000,A,3424.8684,N,11950.5719,W,000.0,267.3,300719,,,A*62
338527 VERBOSE:Calculated checksum: F Received Checksum: 4F
338538 VERBOSE:date:0,time:0.000000,lat:0.000000deg
338552 VERBOSE:$GNVTG,267.3,T,,9,00,00*4F
339221 VERBOSE:Calculated checksum: 59 Received Checksum: 59
339232 VERBOSE:date:0,time:223139.000000,lat:3424.868400degN,lon:11950.571900degW,alt:0.000000,fix:0,sat:0,dil:0.000000
339264 VERBOSE:$GNGGA,223139.000,3424.8684,N,11950.5719,W,1,05,2.3,-307.4,M,-35.6,M,,0000*59
339321 VERBOSE:Calculated checksum: 64 Received Checksum: 2C
339332 VERBOSE:date:0,time:0.000000,lat:0.000000deg
339346 VERBOSE:$GNGLL,3424.8684.3,12.7*2C
339445 VERBOSE:Calculated checksum: 3D Received Checksum: 63
339456 VERBOSE:date:0,time:0.000000,lat:0.000000deg
339470 VERBOSE:$GNGSA,A,3,87,71223139.000,A,3424.8684,N,11950.5719,W,000.0,267.3,300719,,,A*63
339527 VERBOSE:Calculated checksum: F Received Checksum: 4E
339538 VERBOSE:date:0,time:0.000000,lat:0.000000deg
339552 VERBOSE:$GNVTG,267.3,T,,9,00,00*4E
340231 VERBOSE:Calculated checksum: 57 Received Checksum: 57
340242 VERBOSE:date:0,time:223140.000000,lat:3424.868400degN,lon:11950.571900degW,alt:0.000000,fix:0,sat:0,dil:0.000000
340274 VERBOSE:$GNGGA,223140.000,3424.8684,N,11950.5719,W,1,05,2.3,-307.4,M,-35.6,M,,0000*57
340331 VERBOSE:Calculated checksum: 64 Received Checksum: 2C
340342 VERBOSE:date:0,time:0.000000,lat:0.000000deg
340356 VERBOSE:$GNGLL,3424.8684.3,12.7*2C
340453 VERBOSE:Calculated checksum: 2F Received Checksum: 71
340464 VERBOSE:date:0,time:0.000000,lat:0.000000deg
340478 VERBOSE:$GNGSA,A,3,87,712,1,07,21,61,338,21,29,50,138,30,15,45,092,32,10,33,233,08*71
340583 VERBOSE:Calculated checksum: 7E Received Checksum: 64
340595 VERBOSE:date:0,time:0.000000,lat:0.000000deg
340608 VERBOSE:$GPGSV,2,2,07,13,08,72,73,169,,86,54,079,31,71,47,038,27,87,42,337,30*64
340723 VERBOSE:Calculated checksum: 28 Received Checksum: 6D
340734 VERBOSE:date:0,time:0.000000,lat:0.000000deg
340748 VERBOSE:$GLGSV,2,2,08,85RMC,223140.000,A,3424.8684,N,11950.5719,W,000.0,267.3,300719,,,A*6D
340805 VERBOSE:Calculated checksum: 36 Received Checksum: 40
340817 VERBOSE:date:0,time:0.000000,lat:0.000000deg
340830 VERBOSE:$GNVTG,267.3,T,,,00,00*40
341222 VERBOSE:Calculated checksum: 56 Received Checksum: 56
341233 VERBOSE:date:0,time:223141.000000,lat:3424.868400degN,lon:11950.571900degW,alt:0.000000,fix:0,sat:0,dil:0.000000
341265 VERBOSE:$GNGGA,223141.000,3424.8684,N,11950.5719,W,1,05,2.3,-307.4,M,-35.6,M,,0000*56
341322 VERBOSE:Calculated checksum: 64 Received Checksum: 2C
341333 VERBOSE:date:0,time:0.000000,lat:0.000000deg
341347 VERBOSE:$GNGLL,3424.8684.3,12.7*2C
341446 VERBOSE:Calculated checksum: 32 Received Checksum: 6C
341457 VERBOSE:date:0,time:0.000000,lat:0.000000deg
341471 VERBOSE:$GNGSA,A,3,87,71223141.000,A,3424.8684,N,11950.5719,W,000.0,267.3,300719,,,A*6C
341528 VERBOSE:Calculated checksum: F Received Checksum: 41
341540 VERBOSE:date:0,time:0.000000,lat:0.000000deg
341553 VERBOSE:$GNVTG,267.3,T,,9,00,00*41
342215 VERBOSE:Calculated checksum: 55 Received Checksum: 55
342226 VERBOSE:date:0,time:223142.000000,lat:3424.868400degN,lon:11950.571900degW,alt:0.000000,fix:0,sat:0,dil:0.000000
342258 VERBOSE:$GNGGA,223142.000,3424.8684,N,11950.5719,W,1,05,2.3,-307.4,M,-35.6,M,,0000*55
342315 VERBOSE:Calculated checksum: 64 Received Checksum: 2C
342326 VERBOSE:date:0,time:0.000000,lat:0.000000deg
342340 VERBOSE:$GNGLL,3424.8684.3,12.7*2C
342439 VERBOSE:Calculated checksum: 31 Received Checksum: 6F
342450 VERBOSE:date:0,time:0.000000,lat:0.000000deg
342464 VERBOSE:$GNGSA,A,3,87,71223142.000,A,3424.8684,N,11950.5719,W,000.0,267.3,300719,,,A*6F
342521 VERBOSE:Calculated checksum: F Received Checksum: 42
342532 VERBOSE:date:0,time:0.000000,lat:0.000000deg
342546 VERBOSE:$GNVTG,267.3,T,,9,00,00*42
343220 VERBOSE:Calculated checksum: 54 Received Checksum: 54
343231 VERBOSE:date:0,time:223143.000000,lat:3424.868400degN,lon:11950.571900degW,alt:0.000000,fix:0,sat:0,dil:0.000000
343263 VERBOSE:$GNGGA,223143.000,3424.8684,N,11950.5719,W,1,05,2.3,-307.4,M,-35.6,M,,0000*54
343320 VERBOSE:Calculated checksum: 64 Received Checksum: 2C
343331 VERBOSE:date:0,time:0.000000,lat:0.000000deg
343345 VERBOSE:$GNGLL,3424.8684.3,12.7*2C
343442 VERBOSE:Calculated checksum: 26 Received Checksum: 78
343453 VERBOSE:date:0,time:0.000000,lat:0.000000deg
343467 VERBOSE:$GNGSA,A,3,87,712,1,07,21,61,338,22,29,50,138,31,15,45,092,32,10,33,233,03*78
343572 VERBOSE:Calculated checksum: 70 Received Checksum: 6A
343584 VERBOSE:date:0,time:0.000000,lat:0.000000deg
343597 VERBOSE:$GPGSV,2,2,07,13,08,72,73,169,,86,54,079,30,71,47,038,28,87,42,337,30*6A
343712 VERBOSE:Calculated checksum: 2B Received Checksum: 6E
343723 VERBOSE:date:0,time:0.000000,lat:0.000000deg
343737 VERBOSE:$GLGSV,2,2,08,85RMC,223143.000,A,3424.8684,N,11950.5719,W,000.0,267.3,300719,,,A*6E
343794 VERBOSE:Calculated checksum: 36 Received Checksum: 43
343806 VERBOSE:date:0,time:0.000000,lat:0.000000deg
343820 VERBOSE:$GNVTG,267.3,T,,,00,00*43
344219 VERBOSE:Calculated checksum: 53 Received Checksum: 53
344230 VERBOSE:date:0,time:223144.000000,lat:3424.868400degN,lon:11950.571900degW,alt:0.000000,fix:0,sat:0,dil:0.000000
344262 VERBOSE:$GNGGA,223144.000,3424.8684,N,11950.5719,W,1,05,2.3,-307.4,M,-35.6,M,,0000*53
344319 VERBOSE:Calculated checksum: 64 Received Checksum: 2C
344330 VERBOSE:date:0,time:0.000000,lat:0.000000deg
344344 VERBOSE:$GNGLL,3424.8684.3,12.7*2C
344443 VERBOSE:Calculated checksum: 37 Received Checksum: 69
344454 VERBOSE:date:0,time:0.000000,lat:0.000000deg
